timestamp -- motor_step_command,mfc1_stpt,mfc2_stpt,mfc3_stpt,led1_stpt,led2_stpt,ft_posx,ft_posy,ft_heading,ft_frame,ft_error,ft_roll,ft_pitch,ft_yaw
02/21/2020-15:40:01.554520 -- 800000,0.5945916967989142,0.0,0.006008903801686428,0.0,0.0,-0.023206859385282,0.0048248298079017005,6.2796349255968,1,4573.3450087566,0.0016220070610269,-0.0077327564176824,0.0035503815827979
02/21/2020-15:40:01.570142 -- 799999,0.5945796523908112,0.0,0.006020948209789358,0.0,0.0,-0.013460499073348498,0.0248787692992809,0.0031353723499912,2,4593.6889952153,0.0066839838856399,0.0032501794707255,-0.0066857539327893
02/21/2020-15:40:01.585771 -- 799999,0.5945714277452483,0.0,0.006029172855352368,0.0,0.0,-0.046890745565454,0.038572804161693,0.0008182874292545,3,5293.8710204082,0.0045426416986313,-0.011152419649448,0.0023170849207367
02/21/2020-15:40:01.601385 -- 800002,0.5945755748373189,0.0,0.006025025763281685,0.0,0.0,-0.062577698639085,0.031667895864006,6.2623932776424,4,5346.4747307374,-0.0022493420291239,-0.0052518051628535,0.021610316966437
02/21/2020-15:40:01.617006 -- 799998,0.5945791117214241,0.0,0.006021488879176569,0.0,0.0,-0.0128394486839172,0.0257789838289878,0.012870089939322,5,5441.9395562357,-0.0020287154728617,0.016572244877034,-0.033662119476504
02/21/2020-15:40:01.632629 -- 799991,0.5945745009355543,0.0,0.006026099665046352,0.0,0.0,0.051362452108746,0.033455942302175995,0.070549745408478,6,5101.6642628205,0.0034495686804821,0.02127808178774,-0.057679655469156
02/21/2020-15:40:01.648295 -- 799986,0.5945681297246938,0.0,0.0060324708759069015,0.0,0.0,0.039176114516709,0.044064008384991,0.10282075870741,7,5214.2947122862,0.0031711895086932,-0.0043531743607604,-0.032271013298934
02/21/2020-15:40:01.663871 -- 799981,0.594594283552173,0.0,0.006006317048427628,0.0,0.0,0.069036011207931,0.0005178856320006,0.14313731942045,8,5511.4713423831,-0.013185621490143,0.011659458537586,-0.040316560713041
02/21/2020-15:40:01.679498 -- 799967,0.5946582349104269,0.0,0.005942365690173647,0.0,0.0,0.20966570959242603,-0.105961125860877,0.255516651415,9,5334.2800620636,-0.025520818778799,0.053002515581765,-0.11237933199455
02/21/2020-15:40:01.695113 -- 799951,0.5947014227498895,0.0,0.005899177850711105,0.0,0.0,0.4220144286024,-0.17786887856601,0.38187534713448,10,5257.8662930344,-0.00058433785656125,0.074775497483465,-0.12635869571948
02/21/2020-15:40:01.710733 -- 799935,0.5947297111080904,0.0,0.0058708894925102945,0.0,0.0,0.53613417328071,-0.22496899497036,0.50940331174577,11,5687.9282868526,0.0022312476945725,0.041118138456684,-0.12752796461129
02/21/2020-15:40:01.741975 -- 799921,0.5947462143232707,0.0,0.005854386277329919,0.0,0.0,0.62410773937719,-0.25244684824568403,0.6171073826851,12,5285.5096308186,0.0079167945770327,0.029698489391345,-0.10770407093932
02/21/2020-15:40:01.757597 -- 799912,0.5947735944248194,0.0,0.005827006175781242,0.0,0.0,0.73614565957614,-0.29803471732423203,0.68421681612459,13,5295.7212984956,0.010531644618134,0.038926795198915,-0.067109433439496
02/21/2020-15:40:01.773218 -- 799910,0.594736496100633,0.0,0.005864104499967694,0.0,0.0,0.78022456591899,-0.23626600755378901,0.7052725564285,14,5590.6560255387,0.025223979842368,-0.0018938646658356,-0.021055740303907
02/21/2020-15:40:01.788839 -- 799911,0.5947325244033348,0.0,0.005868076197265791,0.0,0.0,0.79506053348328,-0.22965313155245698,0.69646140758787,15,5345.6048387097,0.0048738608147056,0.0023581299009797,0.0088111488406329
02/21/2020-15:40:01.804461 -- 799913,0.5947206514712524,0.0,0.005879949129348222,0.0,0.0,0.80860419858231,-0.20988469963521,0.68177944789742,16,5586.5507352941,0.0079564809671388,-0.00070562271222698,0.014681959690448
02/21/2020-15:40:01.820082 -- 799919,0.5946583634534109,0.0,0.005942237147189627,1.0,0.0,0.83443698572859,-0.10617514992927,0.63188687262411,17,5555.5731523379,0.032638008284831,-0.014290902594201,0.049892575273309
02/21/2020-15:40:01.835704 -- 799928,0.5946338508688838,0.0,0.005966749731716857,1.0,0.0,0.79436186457114,-0.065361696691434,0.55997351295609,18,5301.2612809316,0.0037624227298697,-0.018695433424719,0.071913359668016
02/21/2020-15:40:01.851325 -- 799932,0.5945885589579919,0.0,0.006012041642608763,1.0,0.0,0.7073811736443,0.0100493349435906,0.52900160675732,19,5474.0302158273,0.0064841808208595,-0.037822768115636,0.030971906198775
02/21/2020-15:40:01.866946 -- 799935,0.5946056699257918,0.0,0.0059949306748088085,0.0,0.0,0.74695022373846,-0.0184404264433338,0.50319622849247,20,5065.3760806916,-0.0017507220091375,0.016158639477066,0.025805378264845
02/21/2020-15:40:01.882568 -- 799934,0.5945763997956033,0.0,0.006024200804997321,0.0,0.0,0.69978298079457,0.03029434032054,0.51577716722757,21,5258.9502881844,0.0065134951996514,-0.02164884549444,-0.012580938735099
02/21/2020-15:40:01.898189 -- 799933,0.5945991061046322,0.0,0.006001494495968382,0.0,0.0,0.73586274059706,-0.007511664212643,0.526132290185,22,5071.4114695341,-0.0049445624379934,0.016703385037959,-0.010355122957429
02/21/2020-15:40:01.913814 -- 799929,0.5945983910686492,0.0,0.006002209531951403,0.0,0.0,0.74077479240489,-0.0063211293009138,0.55453311945288,23,4873.1235632184,0.001182634807067,0.001199981963148,-0.028400829267883
02/21/2020-15:40:01.929440 -- 799928,0.594602125283049,0.0,0.005998475317551621,0.0,0.0,0.73778047424808,-0.0125385962765505,0.56103156364033,24,4942.3431442929,-0.0022866712065191,0.00025015707829848,-0.006498444187449
02/21/2020-15:40:01.945053 -- 799928,0.594610528984156,0.0,0.005990071616444653,0.0,0.0,0.7556502162031801,-0.026530758619653004,0.56379748858688,25,4749.7622126437,-0.00076942077252609,0.0075261065448688,-0.002765924946543
02/21/2020-15:40:01.960674 -- 799927,0.5946306378492625,0.0,0.005969962751338117,0.0,0.0,0.79482049724685,-0.060012019022034,0.56618666653105,26,5094.4752688172,-0.0024353028737396,0.017003040899683,-0.0023891779441766
02/21/2020-15:40:01.976295 -- 799928,0.5946156339803108,0.0,0.005984966620289766,0.0,0.0,0.76263502028196,-0.035030577217539,0.56249342728826,27,4598.8301075269,0.0012977319298355,-0.013518802369502,0.0036932392427921
02/21/2020-15:40:01.991917 -- 799928,0.5946166400070351,0.0,0.005983960593565575,0.0,0.0,0.7710051793545599,-0.036705611713317,0.55929766221163,28,4460.4731182796,0.0010113597154323,0.0026595681632526,0.003195765076629
02/21/2020-15:40:02.007539 -- 799928,0.5946142929724144,0.0,0.00598630762818615,0.0,0.0,0.7555933218222601,-0.03279779907006,0.56012901720719,29,4595.8207885305,-0.0016237711712199,-0.0050449828823886,-0.00083135499556228
02/21/2020-15:40:02.023160 -- 799928,0.5946239860379205,0.0,0.005976614562680026,0.0,0.0,0.7726243082415301,-0.048936753137757,0.55877260426264,30,4323.9870967742,-0.0015466062308412,0.0076666123073786,0.0013564129445559
02/21/2020-15:40:02.054402 -- 799928,0.5946241345435519,0.0,0.005976466057048683,0.0,0.0,0.77049146922996,-0.049184015013942,0.55950696066211,31,4335.3240143369,-0.00044699552819695,-0.00055895695113343,-0.00073435639947054
02/21/2020-15:40:02.070023 -- 799928,0.5946233000944398,0.0,0.005977300506160817,0.0,0.0,0.76815390588183,-0.04779465724224,0.55923114017878,32,4155.2537634409,-2.094188416235e-05,-0.00090618678511289,0.00027582048332682
02/21/2020-15:40:02.085644 -- 799928,0.5946226478285,0.0,0.00597795277210055,0.0,0.0,0.7659978017736899,-0.046708634452584,0.55903721594898,33,4102.0215053763,-7.4357722377194e-05,-0.00080128152938076,0.00019392422979825
02/21/2020-15:40:02.101266 -- 799928,0.5946220154991504,0.0,0.005978585101450195,0.0,0.0,0.76879908026223,-0.045655806085425,0.55890186914077,34,4136.1032258065,0.00079271467305464,0.0006055337203093,0.00013534680821299
02/21/2020-15:40:02.116887 -- 799928,0.5946234519551507,0.0,0.005977148645449917,0.0,0.0,0.76768562955927,-0.048047505325887,0.5584223802371,35,4494.6465949821,-0.00087275476603563,0.00010785273652368,0.00047948890366901
02/21/2020-15:40:02.132509 -- 799928,0.5946222991803304,0.0,0.005978301420270186,0.0,0.0,0.76689740272836,-0.04612813525014,0.55865642419799,36,4047.205734767,0.00040332139294963,-0.00056186887843398,-0.00023404396088341
02/21/2020-15:40:02.148130 -- 799928,0.5946259985874751,0.0,0.005974602013125476,0.0,0.0,0.7696431956277301,-0.052287648146082,0.55811240018299,37,4384.0702508961,-0.0012563970216907,0.0018640510701174,0.00054402401499845
02/21/2020-15:40:02.163767 -- 799928,0.5946272460048458,0.0,0.005973354595754717,0.0,0.0,0.77241908972316,-0.054364598068395005,0.55763773539218,38,4374.435125448,-9.7510364323106e-05,0.0011515079379306,0.0004746647908032
02/21/2020-15:40:02.179388 -- 799928,0.5946238800976966,0.0,0.005976720502904017,0.0,0.0,0.76901780628603,-0.048760362664812,0.55828442327219,39,4018.5591397849,0.0009844805049226,-0.0019508792348702,-0.00064668788000592
02/21/2020-15:40:02.194994 -- 799928,0.5946227357219087,0.0,0.00597786487869191,0.0,0.0,0.76654322016093,-0.046854976977969,0.55842134574879,40,4185.2666666667,0.00010166725963986,-0.0010360740554468,-0.00013692247660134
02/21/2020-15:40:02.210615 -- 799928,0.5946218172618095,0.0,0.005978783338791073,0.0,0.0,0.7644657509484,-0.045325740912863996,0.55763346433583,41,4115.7218637993,6.5734713416754e-05,-0.00085735718743072,0.00078788141296483
02/21/2020-15:40:02.226236 -- 799931,0.5946212572003525,0.0,0.0059793434002480906,0.0,0.0,0.75283999818189,-0.044393238586929,0.54091975779299,42,4169.4681003584,-0.0017580617676419,-0.0034675259525231,0.016713706542838
02/21/2020-15:40:02.241857 -- 799931,0.5946150941608692,0.0,0.005985506439731435,0.0,0.0,0.74185426761672,-0.034131777847160996,0.54012535187931,43,4017.4229390681,0.0010485011463626,-0.0048999962791505,0.00079440591367855
02/21/2020-15:40:02.257479 -- 799934,0.5946257043717031,0.0,0.005974896228897512,0.0,0.0,0.78288335797146,-0.051797778885642,0.51575221737837,44,4157.983465133,0.0018026535950858,0.014781070555933,0.024373134500936
02/21/2020-15:40:02.273100 -- 799944,0.5946272352184263,0.0,0.005973365382174338,0.0,0.0,0.65358028433463,-0.054346638679728,0.43759610972616,45,3897.3237410072,-0.020535706630967,-0.037915591164487,0.078156107652213
02/21/2020-15:40:02.288721 -- 799960,0.5945954531099429,0.0,0.0060051474906577555,0.0,0.0,0.52426742302374,-0.00142942805483712,0.30965593716702,46,3911.1737563086,0.00068979889509021,-0.04659846127423,0.12794017255914
02/21/2020-15:40:02.304343 -- 799979,0.5945854927241706,0.0,0.006015107876430038,0.0,0.0,0.3486501278637,0.015154614256013398,0.15787110142296,47,3571.9841155235,-0.0081897231192975,-0.058279869728208,0.15178483574406
02/21/2020-15:40:02.335587 -- 800003,0.5945317283571884,0.0,0.006068872243412215,1.0,0.0,0.101494029806121,0.10467228528133798,6.2539786433975,48,3698.9808118081,0.02451462154915,-0.084248377002227,0.187077765205
02/21/2020-15:40:02.366828 -- 800047,0.5944016487659236,0.0,0.006198951834677051,1.0,0.0,-0.251658254749395,0.32125480473729,5.908791119366,50,4279.2812755519,0.043012018283676,-0.046688115397219,0.1687137288629
02/21/2020-15:40:02.382449 -- 800070,0.5943337093814697,0.0,0.0062668912191309245,1.0,0.0,-0.5036821076685299,0.43437387985299,5.7261330271274,51,4150.7570422535,0.071509059037114,-0.058203921229093,0.18265809223862
02/21/2020-15:40:02.398087 -- 800089,0.5942920322327372,0.0,0.006308568367863465,1.0,0.0,-0.73217885631555,0.50376633249267,5.5783529141046,52,4997.9868651489,0.063662312652882,-0.047897418364871,0.14778011302279
02/21/2020-15:40:02.413704 -- 800101,0.5942944146356071,0.0,0.00630618596499352,1.0,0.0,-0.83557009359204,0.49979963171420994,5.4856589788168,53,5047.5760869565,0.022562720288094,-0.026100201559046,0.092693935287781
02/21/2020-15:40:02.429314 -- 800110,0.5942733637428177,0.0,0.0063272368577829245,0.0,0.0,-0.9061906434153301,0.53484936820857,5.4165065926522,54,5576.1373355263,0.025275719684681,-0.00721349627863,0.069152386164607
02/21/2020-15:40:02.444935 -- 800108,0.5943021807645685,0.0,0.006298419836032078,0.0,0.0,-0.9604702265160001,0.48686902699341,5.4299015226021,55,5110.18125,0.0032766430317699,-0.023925421971509,-0.013394929949908
02/21/2020-15:40:02.460556 -- 800105,0.5942682905074816,0.0,0.006332310093118961,0.0,0.0,-0.9346492806270599,0.54329630504307,5.4519129237029,56,5156.4872180451,0.0061003455838092,0.019765224145444,-0.022011401100787
02/21/2020-15:40:02.476181 -- 800100,0.5942467134701552,0.0,0.006353887130445375,0.0,0.0,-0.8743182453243,0.57922207219155,5.4915643200182,57,5133.5,-0.0063417355116005,0.022531808982095,-0.039651396315278
02/21/2020-15:40:02.491799 -- 800097,0.5942371707088511,0.0,0.006363429891749519,0.0,0.0,-0.8687946774675899,0.5951107697629501,5.5206833147649,58,4742.9184861718,0.002485155950154,0.0050265435058831,-0.029118994746655
02/21/2020-15:40:02.507420 -- 800093,0.5942068139529733,0.0,0.006393786647627376,0.0,0.0,-0.86893777259286,0.64565476829958,5.5488044423101,59,5098.2298181818,0.01237821874203,0.011430424364467,-0.028121127545297
02/21/2020-15:40:02.523041 -- 800091,0.5941511596314907,0.0,0.006449440969109898,1.0,0.0,-0.91230063576069,0.73831921356798,5.5675073297204,60,4847.2864431487,0.032705074267055,0.0096650942476936,-0.018702887410294
02/21/2020-15:40:02.538668 -- 800091,0.594145043769262,0.0,0.006455556831338564,1.0,0.0,-1.0083696643707598,0.74850212417871,5.5621361475034,61,4635.778597786,0.023631598803036,-0.021875655682939,0.0053711822170223
02/21/2020-15:40:02.554283 -- 800091,0.5941348280344927,0.0,0.006465772566107916,0.0,0.0,-1.00591614971691,0.7655113225696799,5.5670512133005,62,4802.1076040172,0.003729398637524,0.0043481463952912,-0.004915065797119
02/21/2020-15:40:02.569905 -- 800087,0.594128076166824,0.0,0.006472524433776655,0.0,0.0,-1.00203858239382,0.7767531822381301,5.5968354659257,63,4892.4390065741,0.0020292598057865,0.0034052847828272,-0.029784252625132
02/21/2020-15:40:02.585526 -- 800086,0.5941318577096374,0.0,0.0064687428909632316,0.0,0.0,-0.9959885378243399,0.77045691345378,5.6022011201918,64,4674.4683908046,-0.0029009056560205,0.00023779747856531,-0.0053656542660924
02/21/2020-15:40:02.601155 -- 800085,0.5941223345889933,0.0,0.006478266011607321,0.0,0.0,-1.01253246863367,0.78631290932619,5.6082304268499,65,4546.2483801296,0.0075753358032507,-0.00098004139882563,-0.0060293066581349
02/21/2020-15:40:02.616769 -- 800085,0.5941106632293949,0.0,0.0064899373712057895,0.0,0.0,-0.99375983794374,0.8057457230576399,5.6103450934345,66,4342.6048850575,0.0011566366138851,0.0089318773271273,-0.0021146665845572
02/21/2020-15:40:02.632390 -- 800086,0.5940993617026404,0.0,0.006501238897960168,0.0,0.0,-0.9665400533583,0.82456276510368,5.6052989386136,67,4625.4651329978,-0.00077698967014927,0.011002860769665,0.0050461548208387
02/21/2020-15:40:02.648026 -- 800085,0.5941244882548472,0.0,0.006476112345753393,0.0,0.0,-0.9972022090199101,0.7827270556793999,5.6087606364775,68,4280.0007168459,-0.0044809526199233,-0.016698923665119,-0.0034616978638615
02/21/2020-15:40:02.663670 -- 800086,0.5941156837375883,0.0,0.006484916863012312,0.0,0.0,-1.00273377101751,0.7973865769155,5.6071462345125,69,4265.4243727599,0.0049667755779958,0.0016152073899564,0.001614401965018
02/21/2020-15:40:02.694884 -- 800086,0.5941149253046809,0.0,0.006485675295919754,0.0,0.0,-1.00034757389739,0.79864936770639,5.6073060675879,70,4285.4903225806,-0.00016926737094389,0.00088384980539288,-0.00015983307545242
02/21/2020-15:40:02.710496 -- 800086,0.5941139664419652,0.0,0.006486634158635357,0.0,0.0,-1.00190643338307,0.80024587412787,5.6073303515997,71,4067.8229390681,0.00074024004740065,-7.2478119437261e-05,-2.4284011785002e-05
02/21/2020-15:40:02.726118 -- 800085,0.594066772112727,0.0,0.00653382848787361,0.0,0.0,-1.0631991306233999,0.87882443230956,5.6107943221764,72,4175.5654069767,0.033216524985171,0.00038816692635888,-0.003463970576736
02/21/2020-15:40:02.741739 -- 800080,0.5939604892533198,0.0,0.0066401113472808705,1.0,0.0,-1.30191493603227,1.05578539322265,5.6516050783701,73,4315.7554882665,0.095175340142674,-0.027460678027832,-0.040810756193642
02/21/2020-15:40:02.757361 -- 800081,0.593709525058655,0.0,0.006891075541945555,1.0,0.0,-1.4672143999161902,1.47364077733935,5.6433645306684,74,5005.8008032129,0.1447920356248,0.03836303753484,0.0082405477016768
02/21/2020-15:40:02.772985 -- 800079,0.5936454138556976,0.0,0.006955186744903033,1.0,0.0,-1.4143201848570601,1.58038593026355,5.6592461153893,75,4569.1692189893,0.018297511474256,0.035244250891533,-0.015881584720916
02/21/2020-15:40:02.788603 -- 800075,0.5936385724636927,0.0,0.006962028136907952,1.0,0.0,-1.3201351405902,1.59177684795174,5.6892658119869,76,4610.0477590007,-0.014843635429067,0.027924914535192,-0.030019696597579
02/21/2020-15:40:02.804225 -- 800077,0.5936435528642493,0.0,0.0069570477363513576,0.0,0.0,-1.40196813610758,1.58348448102501,5.671202295476,77,4611.8027859238,0.013191959028185,-0.02403544817379,0.018063516510849
02/21/2020-15:40:02.819846 -- 800078,0.5935191854242574,0.0,0.007081415176343195,1.0,0.0,-1.62879110438406,1.7905562686114198,5.6636839802013,78,5078.6120426829,0.10001586345078,-0.021856207428847,0.0075183152747137
02/21/2020-15:40:02.835467 -- 800078,0.5933260498646075,0.0,0.007274550735993105,1.0,0.0,-1.7672547362190603,2.11212697542852,5.6681963405503,79,5476.021978022,0.11412498625809,0.024402821832051,-0.0045123603490193
02/21/2020-15:40:02.851088 -- 800082,0.5931054547658482,0.0,0.007495145834752456,1.0,0.0,-1.81674604059357,2.47941781486284,5.6364535061101,80,5311.7841552142,0.10859985923555,0.058894819508041,0.031742834440224
02/21/2020-15:40:02.866709 -- 800084,0.5931069685586244,0.0,0.0074936320419761865,1.0,0.0,-1.86386936424192,2.4768973498903497,5.6206262575049,81,5977.4877112135,0.0088977409811931,-0.01297208887221,0.01582724860524
02/21/2020-15:40:02.882332 -- 800086,0.5930971289126146,0.0,0.007503471687986096,1.0,0.0,-1.91111861824461,2.49328036049685,5.6042079361991,82,5754.5096376253,0.014067850140813,-0.0089430795112408,0.016418321305821
02/21/2020-15:40:02.897953 -- 800088,0.5930402132896734,0.0,0.007560387310927231,0.0,0.0,-1.9548982220509499,2.58804487269384,5.5864412936972,83,6013.3381240545,0.033670641518662,0.0087801942960267,0.017766642501864
02/21/2020-15:40:02.913580 -- 800081,0.592993765092715,0.0,0.007606835507885663,1.0,0.0,-2.06676107646918,2.66538112062963,5.6399851449573,84,6829.9713639789,0.043365517963819,-0.013221291782215,-0.053543851260107
02/21/2020-15:40:02.929195 -- 800078,0.5928309963561236,0.0,0.007769604244477015,1.0,0.0,-1.7809100287631998,2.93639106705423,5.6686194056666,85,6812.525887574,0.017004593211751,0.13019845792457,-0.02863426070932
02/21/2020-15:40:02.944816 -- 800072,0.5928086069807674,0.0,0.0077919936198331775,1.0,0.0,-1.82353125377391,2.97366937702224,5.7102190053499,86,6645.9246119734,0.018249144942752,-0.0048234739282141,-0.041599599683239
02/21/2020-15:40:02.960437 -- 800069,0.592747323789601,0.0,0.00785327681099952,1.0,0.0,-1.8538122043196699,3.0757058903142003,5.7358446332255,87,6705.280857354,0.034178009341347,0.0095203892394431,-0.025625627875642
02/21/2020-15:40:02.991680 -- 800061,0.5925719647339487,0.0,0.008028635866651953,1.0,0.0,-1.8436893614003398,3.3676787179755,5.7984967107965,88,6686.499244713,0.082999724497325,0.050964251538251,-0.062652077570976
02/21/2020-15:40:03.007301 -- 800055,0.5924017613840993,0.0,0.008198839216501322,1.0,0.0,-1.76727412915044,3.6510672954747,5.8510876965652,89,6788.675134719,0.073447452206276,0.064649685727574,-0.052590985768671
02/21/2020-15:40:03.022922 -- 800047,0.592379804191848,0.0,0.008220796408752673,1.0,0.0,-1.68918260517,3.6876260205732003,5.9067463703906,90,6482.6564141035,0.00096503178491179,0.028729088208678,-0.055658673825432
02/21/2020-15:40:03.038544 -- 800046,0.5923569122719081,0.0,0.008243688328692492,1.0,0.0,-1.8030955084953,3.7257410672730003,5.9175212057704,91,6591.7055762082,0.025608617536541,-0.030780270686583,-0.010774835379804
02/21/2020-15:40:03.054165 -- 800050,0.5923955933642462,0.0,0.008205007236354474,0.0,0.0,-1.97530112102553,3.6613370485302,5.8843013506717,92,6730.4052863436,0.0014943412514403,-0.061269411964855,0.033219855098683
02/21/2020-15:40:03.069788 -- 800060,0.5924106335584809,0.0,0.0081899670421197,0.0,0.0,-2.09845422945717,3.6362951251293003,5.8091115221397,93,6436.4384164223,0.0097918193487663,-0.040740160647035,0.075189828531998
02/21/2020-15:40:03.085408 -- 800075,0.5924704699911434,0.0,0.008130130609457177,0.0,0.0,-2.21129840723934,3.5366674647461998,5.6896031791095,94,6700.2074074074,-0.0094543568796699,-0.049306655132459,0.11950834303024
02/21/2020-15:40:03.101029 -- 800092,0.592543261770152,0.0,0.008057338830448528,0.0,0.0,-2.36668371729876,3.4154691526968,5.5550282594196,95,6895.8722764838,-0.00010174197035126,-0.065733912041086,0.13457491968986
02/21/2020-15:40:03.116651 -- 800111,0.5926648236794451,0.0,0.007935776921155555,0.0,0.0,-2.47693643073756,3.2130685737239997,5.4091645139173,96,6954.9399075501,-0.020577631936643,-0.074086356498394,0.14586374550229
02/21/2020-15:40:03.132272 -- 800119,0.5926981331478955,0.0,0.007902467452705106,0.0,0.0,-2.4163273721597402,3.157608308754,5.3471661312459,97,6839.1636225266,-0.027311224146624,-0.0020601903692635,0.061998382671437
02/21/2020-15:40:03.147893 -- 800130,0.5927642554897263,0.0,0.007836345110874294,0.0,0.0,-2.7716145620735704,3.0475146096056998,5.2589582094136,98,6490.7468051118,0.077949032638081,-0.096464889168938,0.088207921832325
02/21/2020-15:40:03.163524 -- 800140,0.5927712855781018,0.0,0.0078293150224988,0.0,0.0,-3.0292365704103004,3.0358095124605002,5.1770574728063,99,6949.0612745098,0.073258419351443,-0.045018277261753,0.081900736607218
02/21/2020-15:40:03.179136 -- 800140,0.5927440558712206,0.0,0.00785654472938006,0.0,0.0,-2.99291763062676,3.0811469744178,5.1793466798965,100,6653.4134831461,-0.0040287021774891,0.018939899841944,-0.0022892070902094
02/21/2020-15:40:03.194758 -- 800139,0.5927371591894919,0.0,0.007863441411108708,0.0,0.0,-3.0810347315421,3.0926299494959997,5.1903500848813,101,6664.3247148289,0.027896689631184,-0.0099584093555535,-0.011003404984791
02/21/2020-15:40:03.210378 -- 800139,0.5927253740009997,0.0,0.007875226599600962,0.0,0.0,-3.2492829588072003,3.1122522883356005,5.189254813194,102,6570.9365443425,0.052817308975823,-0.019959658484866,0.0010952716873426
02/21/2020-15:40:03.226001 -- 800138,0.5927222296533174,0.0,0.007878370947283123,0.0,0.0,-3.4665172232394,3.1174876272264003,5.1978779774924,103,6408.5666406859,0.064997015775167,-0.031966823400046,-0.0086231642984282
02/21/2020-15:40:03.241621 -- 800132,0.5927254879236217,0.0,0.00787511267697898,0.0,0.0,-3.5082591643872,3.11206260717,5.2398581287907,104,6685.1769578313,0.011290739552239,-0.0083315815860868,-0.041980151298276
02/21/2020-15:40:03.257245 -- 800128,0.5926906806922726,0.0,0.007909919908327989,0.0,0.0,-3.7019440163136,3.1700166473661002,5.2725922338215,105,6999.1440485216,0.065245622285991,-0.01687533806358,-0.032734105030765
02/21/2020-15:40:03.288486 -- 800125,0.5926001377237992,0.0,0.008000462876801501,1.0,0.0,-3.8994771174324,3.3207706898745,5.2952161657944,106,6739.5034482759,0.082563495909949,0.0066499691104374,-0.022623931972888
02/21/2020-15:40:03.304107 -- 800121,0.5925728018012973,0.0,0.008027798799303303,1.0,0.0,-3.7775939481513,3.3662850008400005,5.3328471361064,107,6594.3129102845,-0.024908161425068,0.035504590796189,-0.037630970312035
02/21/2020-15:40:03.319728 -- 800118,0.592533129241085,0.0,0.008067471359515556,1.0,0.0,-3.7317878663832,3.4323398135933996,5.3518007251464,108,6495.215007215,0.00063269058422097,0.026787256682305,-0.01895358904001
02/21/2020-15:40:03.335348 -- 800121,0.5925457189126037,0.0,0.008054881687996996,0.0,0.0,-3.8295816643911,3.4113780105149996,5.3315601812271,109,6591.6137026239,0.022241472000489,-0.024835450897777,0.020240543919304
02/21/2020-15:40:03.350970 -- 800121,0.5925478144224186,0.0,0.008052786178182041,0.0,0.0,-3.8635682883381,3.4078889866731,5.3264041580417,110,6231.7646632875,0.008570187722047,-0.0074998760041203,0.0051560231854066
02/21/2020-15:40:03.366592 -- 800116,0.5925437840555957,0.0,0.008056816545004925,0.0,0.0,-3.8348873023841996,3.4145995474332,5.3650598481911,111,6884.2861250899,-0.0063826431539275,0.0074616699957514,-0.038655690149415
02/21/2020-15:40:03.382213 -- 800121,0.5925445581450038,0.0,0.008056042455596817,0.0,0.0,-3.8287230930879,3.4133106885687,5.331209365384,112,6011.7405017921,-0.0019084848427411,0.00087441118603283,0.033850482807103
02/21/2020-15:40:03.397846 -- 800121,0.5925373483457574,0.0,0.008063252254843122,0.0,0.0,-3.8372989542405,3.4253150043138,5.3293724110516,113,5527.2613065327,0.0046481884526741,0.0016054817680332,0.0018369543323527
02/21/2020-15:40:03.413472 -- 800120,0.5925323087251549,0.0,0.008068291875445645,0.0,0.0,-3.8155631896272,3.433705972617,5.3354960314415,114,5816.6616487455,-0.0042713204604806,0.0064863600170535,-0.0061236203898732
02/21/2020-15:40:03.429077 -- 800119,0.5925255953077249,0.0,0.008075005292875735,0.0,0.0,-3.8055724933254,3.4448838126381,5.3413823254671,115,5941.5046594982,-0.00051543498126841,0.0049706658346456,-0.0058862940255735
02/21/2020-15:40:03.444699 -- 800120,0.5925200426919129,0.0,0.008080557908687627,0.0,0.0,-3.7915781184456003,3.4541289179649,5.3384401913041,116,5843.3567839196,-0.0019666853065901,0.0052334822819858,0.002942134162945
02/21/2020-15:40:03.460319 -- 800120,0.5925155680957793,0.0,0.008085032504821323,0.0,0.0,-3.7881635177325004,3.4615791205275004,5.338014079802,117,5823.6305595409,0.00053223864505342,0.0026794592205139,0.00042611150218043
02/21/2020-15:40:03.475940 -- 800118,0.5925181345359948,0.0,0.008082466064605826,0.0,0.0,-3.7277496564279,3.4573059975687,5.3509300585266,118,5763.6355810617,-0.017088940898484,0.010748927155518,-0.012915978724616
02/21/2020-15:40:03.491562 -- 800118,0.5925268663790916,0.0,0.008073734221509069,0.0,0.0,-3.7317965335623,3.4427674788126,5.3525869253002,119,6113.5928315412,-0.0018091591966716,-0.0046938290223482,-0.0016568667736582
02/21/2020-15:40:03.507183 -- 800120,0.5925365395263249,0.0,0.008064061074275736,0.0,0.0,-3.7790869901817,3.4266616886690997,5.3393871094277,120,5777.1562724014,0.0095254292234498,-0.013659402620579,0.013199815872518
02/21/2020-15:40:03.522808 -- 800119,0.5925292047863118,0.0,0.008071395814288888,0.0,0.0,-3.8116284194801997,3.4388740307909997,5.3413582791547,121,5815.7734767025,0.01116930110166,-0.0030787209415812,-0.0019711697269441
02/21/2020-15:40:03.538426 -- 800119,0.592515790216743,0.0,0.008084810383857537,0.0,0.0,-3.7777232560869,3.4612092891228,5.3411318466252,122,5769.1822094692,-0.0047603632329551,0.012668746991824,0.00022643252944351
02/21/2020-15:40:03.554047 -- 800119,0.5925212301402425,0.0,0.008079370460358079,0.0,0.0,-3.7663465637214,3.4521518164962,5.3427921838307,123,5639.4774193548,-0.0048428600202675,-0.00020745722947277,-0.0016603372055179
02/21/2020-15:40:03.569668 -- 800119,0.5925123446860847,0.0,0.008088255914515915,0.0,0.0,-3.7849408433148,3.466946097669,5.3431400385051,124,5741.7627240143,0.007913745196273,0.00032858739159036,-0.00034785467439473
02/21/2020-15:40:03.600912 -- 800117,0.592413580151715,0.0,0.008187020448885645,1.0,0.0,-3.7201437027384,3.6313890473946,5.359003834494,125,5402.9913482336,0.01533559959061,0.056885989122804,-0.015863795988903
02/21/2020-15:40:03.616543 -- 800107,0.5922246538815986,0.0,0.008375946719002042,1.0,0.0,-3.7627189586937,3.9459512871384,5.4385600757819,126,5451.4944974321,0.077448384880007,0.072132303576818,-0.079556241287849
02/21/2020-15:40:03.632153 -- 800094,0.5921213825533591,0.0,0.008479218047241503,1.0,0.0,-3.8265517703661,4.1178980486571,5.5381827570353,127,5485.6395864106,0.055352837336081,0.02601491705164,-0.09962268125339
02/21/2020-15:40:03.647782 -- 800083,0.5920435509375412,0.0,0.008557049663059339,1.0,0.0,-3.8130473035974,4.2474876889938,5.6253224274802,128,5452.953010279,0.030102697486932,0.031323346207115,-0.08713967044488
02/21/2020-15:40:03.663401 -- 800073,0.5919384899951452,0.0,0.008662110605455376,1.0,0.0,-3.7096283653968,4.4224141580832,5.7035976054968,129,5720.4365370506,0.027511794375268,0.061916098560389,-0.078275178016612
02/21/2020-15:40:03.679017 -- 800063,0.5918503075130838,0.0,0.008750293087516816,1.0,0.0,-3.6621047779701,4.5692379907155,5.7844217272115,130,5105.36,0.033873404922921,0.038731582595482,-0.080824121714752
02/21/2020-15:40:03.694640 -- 800062,0.5917165128206173,0.0,0.008884087779983302,1.0,0.0,-3.6607632834813,4.7920061536722,5.7946906147124,131,5977.4098859316,0.065179689377991,0.035578295061001,-0.010268887500882
02/21/2020-15:40:03.710260 -- 800058,0.5916525243186612,0.0,0.00894807628193934,1.0,0.0,-3.6682806420825003,4.8985470094290005,5.822945954822,132,5531.8205323194,0.032737879444126,0.013993083240504,-0.028255340109551
02/21/2020-15:40:03.725883 -- 800058,0.5916127824663677,0.0,0.008987818134232852,1.0,0.0,-3.6792402358053,4.9647171934977,5.8230410287971,133,5281.3641180924,0.021384565776863,0.0065226875532126,-9.50739751012e-05
02/21/2020-15:40:03.741502 -- 800063,0.5915214699331889,0.0,0.009079130667411771,1.0,0.0,-3.6936043973142003,5.1167525612406,5.7848468824177,134,5673.1994025392,0.047179763644107,0.019120580390603,0.038194146379345
02/21/2020-15:40:03.757124 -- 800063,0.5914611511992924,0.0,0.009139449401308168,1.0,0.0,-3.7418780187207004,5.217183253178099,5.7835016436025,135,5592.9864763336,0.037095168458151,0.0018916323272345,0.0013452388152043
02/21/2020-15:40:03.772746 -- 800060,0.5914880690197387,0.0,0.009112531580861862,1.0,0.0,-3.7359100617662997,5.172365082135,5.8053124369299,136,5423.2842415317,-0.014124437335267,-0.0052584680162662,-0.021810793327446
02/21/2020-15:40:03.788368 -- 800058,0.5914827516700571,0.0,0.009117848930543484,0.0,0.0,-3.7634467958888997,5.181218469354899,5.8208153456328,137,5524.5080409357,0.0067890312062573,-0.0068463404548859,-0.015502908702809
02/21/2020-15:40:03.803987 -- 800057,0.5914413522788166,0.0,0.009159248321784025,0.0,0.0,-3.7354365137676,5.2501484557704,5.8346034159978,138,5353.7523949889,0.016527209424463,0.01849223047663,-0.013788070365071
02/21/2020-15:40:03.819609 -- 800058,0.5914027968311826,0.0,0.009197803769418079,1.0,0.0,-3.7867089451995,5.3143432760811,5.8260863930476,139,5056.2684365782,0.026719169722365,-0.0060060076993075,0.008517022950242
02/21/2020-15:40:03.835231 -- 800058,0.5914598802203287,0.0,0.009140720380271953,0.0,0.0,-3.8234798921595,5.2192994331528,5.8199406645203,140,5066.3785147801,-0.022942357694389,-0.025051722661779,0.0061457285272408
02/21/2020-15:40:03.850852 -- 800063,0.5914928933446434,0.0,0.009107707255957177,0.0,0.0,-3.8673273167502003,5.1643325811687,5.7810104411591,141,5174.0634920635,-0.0094449648720438,-0.021451937571344,0.03893022336121
02/21/2020-15:40:03.866473 -- 800070,0.5915216679373272,0.0,0.009078932663273394,0.0,0.0,-3.8795220580014,5.1164228843502,5.7285707816534,142,4915.9361549498,-0.01174382895569,-0.011562959247847,0.052439659505713
02/21/2020-15:40:03.882096 -- 800079,0.5915351523646022,0.0,0.009065448235998438,0.0,0.0,-3.9532574656815003,5.0939713129374,5.6617465688384,143,4934.5316546763,0.007408619552091,-0.024605933471281,0.06682421281507
02/21/2020-15:40:03.897735 -- 800086,0.5915457471175701,0.0,0.00905485348303051,0.0,0.0,-4.0411716741048,5.0763310492458,5.606177113824,144,4700.9636891794,0.01303447438696,-0.026900948307385,0.055569455014387
02/21/2020-15:40:03.913347 -- 800087,0.5915872911169585,0.0,0.009013309483642042,0.0,0.0,-4.0627126397955,5.007160290264,5.5969317380765,145,5145.1130309575,-0.013380772103217,-0.02010316888249,0.0092453757474974
02/21/2020-15:40:03.944581 -- 800088,0.5915442210291042,0.0,0.009056379571496456,0.0,0.0,-4.0957288255697994,5.0788719865416,5.5864437970198,146,4984.516642547,0.025431135468613,0.0067659737378531,0.010487941056711
02/21/2020-15:40:03.975822 -- 800091,0.5915309397006521,0.0,0.009069660899948529,0.0,0.0,-4.1307893457282,5.1009853984143,5.5683244744224,148,4656.4919941776,0.0044635283182059,-0.0081886968099973,0.0095960679536293
02/21/2020-15:40:03.991443 -- 800089,0.59147785437556,0.0,0.0091227462250406,1.0,0.0,-4.1651177404647,5.1893724646926,5.5789148955472,149,4895.5811403509,0.02980662983638,0.010513876069722,-0.01059042112481
02/21/2020-15:40:04.007065 -- 800088,0.5913751602477236,0.0,0.009225440352876996,1.0,0.0,-4.2258663730584,5.3603581875402,5.5899994186302,150,5045.0985915493,0.056664706339618,0.021157686653724,-0.011084523082977
02/21/2020-15:40:04.022686 -- 800085,0.591319962549231,0.0,0.009280638051369609,1.0,0.0,-4.3530855942054005,5.4522623555304,5.6095659205014,151,4861.593258427,0.050532695006487,-0.013539504633566,-0.019566501871216
02/21/2020-15:40:04.038307 -- 800081,0.5912778824556957,0.0,0.009322718144904924,1.0,0.0,-4.363666601664001,5.522325711266699,5.6446505583218,152,5092.9662921348,0.020658376844928,0.011452304938262,-0.035084637820312
02/21/2020-15:40:04.053929 -- 800076,0.5912400587962533,0.0,0.009360541804347268,1.0,0.0,-4.2110840849265,5.5853021042382,5.6802088675152,153,4880.8652585579,-0.012508000320192,0.053584918611868,-0.035558309193407
02/21/2020-15:40:04.069550 -- 800072,0.5911150655480722,0.0,0.009485535052528348,1.0,0.0,-4.1883634090827,5.7934158624597,5.7142041963231,154,5598.0358744395,0.053612258111647,0.044675440434344,-0.033995328807954
02/21/2020-15:40:04.085172 -- 800066,0.5909202919442712,0.0,0.009680308656329429,1.0,0.0,-4.1421574955778,6.117713912788499,5.7601589727567,155,5261.7210031348,0.084391494046348,0.069301754941076,-0.045954776433537
02/21/2020-15:40:04.100793 -- 800061,0.5907640736759581,0.0,0.009836526924642583,1.0,0.0,-4.2596222205498,6.3778173295299005,5.799832994086,156,5662.0680713128,0.094841640180545,0.0075080368595045,-0.039674021329337
02/21/2020-15:40:04.116414 -- 800058,0.5906606867220668,0.0,0.009939913878533754,1.0,0.0,-4.2846762553674,6.5499566077587,5.8207663022713,157,5561.1685303514,0.054887392140326,0.018699493087615,-0.020933308185324
02/21/2020-15:40:04.132037 -- 800055,0.5905782911316229,0.0,0.010022309468977718,1.0,0.0,-4.3303512960105,6.6871452658479,5.8438027712513,158,5552.6905511811,0.0477948026632,0.006224642786173,-0.023036468979968
02/21/2020-15:40:04.147670 -- 800055,0.5904874495076112,0.0,0.01011315109298943,1.0,0.0,-4.3894989729828,6.838396569827401,5.8498983602275,159,5924.3393987342,0.054025777738034,0.00343865717204,-0.0060955889762387
02/21/2020-15:40:04.163289 -- 800058,0.5903900131902217,0.0,0.01021058741037898,1.0,0.0,-4.4263075211805,7.000628038281,5.8228782099625,160,6138.8699839486,0.054071652833574,0.012300877748101,0.027020150264988
02/21/2020-15:40:04.178900 -- 800062,0.5902943588757886,0.0,0.01030624172481195,1.0,0.0,-4.4535796065204,7.1598924718119,5.7915400222772,161,6635.2824902724,0.051354561128198,0.016245721469147,0.031338187685293
02/21/2020-15:40:04.194521 -- 800065,0.5903217322389863,0.0,0.010278868361614294,1.0,0.0,-4.6814768418879,7.1143158220878,5.7709318776799,162,5635.2190839695,0.023231989857703,-0.073905829654154,0.020608144597384
02/21/2020-15:40:04.210154 -- 800070,0.5902747714052524,0.0,0.010325829195348168,1.0,0.0,-4.9287857205981,7.192505610254699,5.7269824806664,163,5809.3899371069,0.064411170765707,-0.057683318529231,0.043949397013458
02/21/2020-15:40:04.241385 -- 800075,0.5901562547591366,0.0,0.010444345841464024,1.0,0.0,-5.1406755612890995,7.389835826037599,5.6902249426356,164,6156.7967611336,0.093605454452017,-0.023540836244179,0.036757538030758
02/21/2020-15:40:04.257005 -- 800080,0.5900118677726539,0.0,0.010588732827946729,1.0,0.0,-5.2700811789417,7.630240158531301,5.6541489992316,165,5977.2611202636,0.090387084070104,0.010641698855039,0.036075943403995
02/21/2020-15:40:04.272641 -- 800083,0.5899093833989739,0.0,0.010691217201626727,1.0,0.0,-5.303050421273699,7.8008766407085,5.6301801746648,166,6278.6715092817,0.052160762500949,0.025206765772384,0.023968824566831
02/21/2020-15:40:04.288250 -- 800085,0.5898928746213501,0.0,0.01070772597925051,1.0,0.0,-5.4197094716433005,7.8283637554520995,5.607791446406,167,6106.0529547199,0.031185832264489,-0.024972057392894,0.02238872825883
02/21/2020-15:40:04.303870 -- 800090,0.5899052307326478,0.0,0.010695369867952852,1.0,0.0,-5.4545865052236,7.8077908301415,5.5737379797102,168,6110.2538109756,0.0021436081356028,-0.013326855843742,0.034053466695767
02/21/2020-15:40:04.319491 -- 800092,0.5899292168220724,0.0,0.010671383778528169,0.0,0.0,-5.5490125140732,7.7678539912494005,5.5531275793639,169,6087.2067924528,0.010738255736414,-0.032444448010812,0.020610400346329
02/21/2020-15:40:04.335112 -- 800092,0.5898989819827988,0.0,0.010701618617801861,0.0,0.0,-5.5995867904305,7.8181949986401005,5.5536797292052,170,6282.3940298507,0.02374612659843,-0.0013771072585275,-0.00055214984130994
02/21/2020-15:40:04.350734 -- 800093,0.5898152958246993,0.0,0.010785304775901321,0.0,0.0,-5.6284064141045995,7.9575324518757,5.5510593232069,171,6104.533383915,0.040997114844597,0.023848215897229,0.0026204059982829
02/21/2020-15:40:04.366356 -- 800094,0.5897386613115874,0.0,0.010861939289013214,1.0,0.0,-5.6915166906096,8.085128916207,5.5420711938164,172,6027.3986228003,0.045637800577601,0.012989795270044,0.008988129390516
02/21/2020-15:40:04.381976 -- 800095,0.5896494301672415,0.0,0.01095117043335916,1.0,0.0,-5.8780985418183,8.233698771543,5.5347490571562,173,6698.8673469388,0.078567145596977,-0.012160318345306,0.0073221366601804
02/21/2020-15:40:04.397598 -- 800093,0.5895553358752921,0.0,0.011045264725308528,1.0,0.0,-5.9470365785034005,8.3903657676387,5.5521863544848,174,6836.9830899308,0.054065037089292,0.018228312526756,-0.017437297328613
02/21/2020-15:40:04.413219 -- 800093,0.5894293083684254,0.0,0.011171292232175195,1.0,0.0,-5.953850556627,8.6002015665717,5.5488583689402,175,6981.3448818898,0.05351622920952,0.045094530158007,0.0033279855445949
02/21/2020-15:40:04.428851 -- 800090,0.5893694816661368,0.0,0.011231118934463845,1.0,0.0,-6.082758141282,8.6998130258823,5.5735048190828,176,6324.3404592241,0.053318067999477,-0.010303830751077,-0.024646450142522
02/21/2020-15:40:04.444461 -- 800088,0.5892471963036604,0.0,0.01135340429694024,1.0,0.0,-6.1237125018207,8.9034181544055,5.5891746903726,177,7071.1699920192,0.060642161935919,0.033393095086069,-0.0156698712898
02/21/2020-15:40:04.460082 -- 800082,0.5890846704608463,0.0,0.011515930139754296,1.0,0.0,-6.114742294004699,9.1740236826909,5.632309164328,178,6431.6012861736,0.068707565497796,0.058530056274385,-0.043134473955445
02/21/2020-15:40:04.475706 -- 800076,0.5889281023537888,0.0,0.011672498246811772,1.0,0.0,-6.064307851523699,9.4347095809416,5.6837478377844,179,6080.6780210868,0.060628686787786,0.064491865906914,-0.051438673456416
02/21/2020-15:40:04.491325 -- 800073,0.588701335830113,0.0,0.011899264770487628,1.0,0.0,-6.111373101729,9.8122758428619,5.705769391214,180,6555.7382378101,0.11339847490969,0.056807646139187,-0.022021553429615
02/21/2020-15:40:04.506947 -- 800068,0.58856792546216,0.0,0.012032675138440602,1.0,0.0,-6.2412325353927,10.0344041055036,5.7439191818027,181,6465.040239726,0.085735443637916,0.0025137206551132,-0.038149790588654
02/21/2020-15:40:04.538189 -- 800068,0.5884006556156528,0.0,0.012199944984947808,1.0,0.0,-6.218151494966399,10.312908399938099,5.7483603989627,182,6752.3532883642,0.075829826800623,0.054104870491265,-0.0044412171599889
02/21/2020-15:40:04.553811 -- 800065,0.5882836601987278,0.0,0.012316940401872853,1.0,0.0,-6.0927092488368,10.5077057691183,5.7673241673059,183,6387.1157981803,0.035206764651797,0.068740764154903,-0.018963768343201
02/21/2020-15:40:04.569431 -- 800063,0.588147269419789,0.0,0.012453331180811591,1.0,0.0,-6.083948128945501,10.7347964160513,5.7837193497921,184,6352.3831168831,0.064731176704728,0.039351516440409,-0.016395182486235
02/21/2020-15:40:04.585053 -- 800061,0.58801151562418,0.0,0.012589084976420601,1.0,0.0,-6.2111390158587,10.960826485740299,5.7989321972977,185,6294.2310889443,0.086435284704669,-0.0017889903385925,-0.015212847505571
02/21/2020-15:40:04.600674 -- 800061,0.588055800129919,0.0,0.012544800470681683,1.0,0.0,-6.359234751944101,10.887092783685,5.8023990105826,186,6437.400621118,0.0011342934842786,-0.055133627537224,-0.0034668132849319
02/21/2020-15:40:04.616297 -- 800062,0.5879900644096246,0.0,0.012610536190975916,1.0,0.0,-6.4630608352149,10.9965427579749,5.7935972535658,187,6504.0810600156,0.048413438982908,-0.013599593623139,0.0088017570168558
02/21/2020-15:40:04.631931 -- 800065,0.5878201734590234,0.0,0.012780427141577178,1.0,0.0,-6.625254267508501,11.279411190726,5.7701362058331,188,6477.2894736842,0.10867188983538,-0.0020980167843322,0.023461047732684
02/21/2020-15:40:04.647549 -- 800072,0.5876137042819406,0.0,0.012986896318660061,1.0,0.0,-6.7376919837126,11.623182370569,5.7156898138406,189,6745.8667232598,0.11756092006682,0.026803889580859,0.054446391992451
02/21/2020-15:40:04.663159 -- 800074,0.5875316958252478,0.0,0.013068904775352854,1.0,0.0,-6.8545362973521,11.7597264509625,5.6947479346171,190,6558.7643630308,0.05940120217627,-0.0077564363338651,0.020941879223524
02/21/2020-15:40:04.678788 -- 800077,0.5875755884843114,0.0,0.01302501211628925,1.0,0.0,-6.9412458672162,11.686645173621601,5.6740909216502,191,6524.366873065,-0.0038320343016958,-0.037605689468623,0.020657012966885
02/21/2020-15:40:04.694402 -- 800086,0.5875860494425984,0.0,0.013014551158002222,1.0,0.0,-7.137054520098,11.6692276780737,5.601996046689,192,6609.4945226917,0.034615432688095,-0.055653731268589,0.07209487496124
02/21/2020-15:40:04.710026 -- 800091,0.5874958850964638,0.0,0.013104715504136817,1.0,0.0,-7.410096615618,11.819351314387799,5.564953162951,193,6708.6503608661,0.096900856839254,-0.037403975354737,0.037042883737999
02/21/2020-15:40:04.725645 -- 800096,0.5874466593132202,0.0,0.01315394128738042,0.0,0.0,-7.6177287107649,11.9013122434884,5.5234828043282,194,6690.4069020867,0.066813823488607,-0.032759380704758,0.041470358622756
02/21/2020-15:40:04.741266 -- 800101,0.5873574185190533,0.0,0.013243182081547266,1.0,0.0,-7.6875602227518005,12.049898165776199,5.482580864939,195,6162.4428242517,0.051581500346116,0.018293529468199,0.040901939389271
02/21/2020-15:40:04.756888 -- 800104,0.5873163832729603,0.0,0.013284217327640239,1.0,0.0,-7.7811991535331,12.118221850521,5.4652869875431,196,6623.1064638783,0.038306857635547,-0.0050547131987991,0.017293877395822
02/21/2020-15:40:04.772508 -- 800104,0.5872395075136339,0.0,0.013361093086966726,1.0,0.0,-7.8539810730201,12.2462199897996,5.4600013768491,197,6687.7627511592,0.046837867374314,0.014669342189636,0.0052856106940747
02/21/2020-15:40:04.788131 -- 800106,0.5872054464173503,0.0,0.013395154183250331,1.0,0.0,-7.9275208433508,12.3029317151118,5.4454129663649,198,6627.9040060469,0.03084838378548,-0.0025788878740157,0.01458841048411
02/21/2020-15:40:04.803751 -- 800106,0.5871993023201771,0.0,0.013401298280423482,1.0,0.0,-8.024908622522101,12.3131616369051,5.4491716075348,199,6727.6774924471,0.026370309334579,-0.019236835283828,-0.003758641169893
02/21/2020-15:40:04.819372 -- 800104,0.5871833990631604,0.0,0.01341720153744024,1.0,0.0,-8.0191896737223,12.339640559838,5.4643134235532,200,7017.6231778426,0.0045776879421904,0.0077835712863273,-0.015141816018381
02/21/2020-15:40:04.834994 -- 800096,0.5870985048137616,0.0,0.013502095786838978,1.0,0.0,-7.880337118099801,12.480989485086898,5.5237327642149,201,6485.0302137067,0.00033984987935091,0.066054979027658,-0.059419340661692
02/21/2020-15:40:04.850615 -- 800089,0.5870212577316898,0.0,0.013579342868910872,1.0,0.0,-7.803580129440901,12.609605876736602,5.5786433064012,202,6006.1450777202,0.014791443249247,0.047691154129769,-0.054910542186276
02/21/2020-15:40:04.881858 -- 800085,0.5869809959972792,0.0,0.0136196046033215,1.0,0.0,-7.7574018914682,12.6766416645303,5.6142343390492,203,6112.852897474,0.0075208732948728,0.026072144522239,-0.035591032647998
02/21/2020-15:40:04.897486 -- 800075,0.5868845393019124,0.0,0.013716061298688168,1.0,0.0,-7.7156129430999005,12.837242062315799,5.6924447003097,204,6233.7321156773,0.0350649100164,0.04279932091746,-0.078210361260556
02/21/2020-15:40:04.913100 -- 800065,0.5867657857422316,0.0,0.01383481485836907,1.0,0.0,-7.6266915110877,13.034966739184501,5.7652717631443,205,6080.6747458952,0.040445271360496,0.059906565921083,-0.07282706283455
02/21/2020-15:40:04.928722 -- 800056,0.5866712038748312,0.0,0.013929396725769429,1.0,0.0,-7.6692292280421,13.192445548406099,5.8420297125084,206,6498.8481797057,0.053126294164967,0.011641191279556,-0.076757949364089
02/21/2020-15:40:04.944343 -- 800050,0.586589088087928,0.0,0.014011512512672672,1.0,0.0,-7.574850524776799,13.329168333599998,5.8834461704482,207,6710.4657320872,0.028766146985011,0.047324808787262,-0.041416457939782
02/21/2020-15:40:04.959965 -- 800045,0.5865308623756694,0.0,0.014069738224931232,1.0,0.0,-7.4765897611137,13.4261141445105,5.9281092079286,208,7039.5875096376,0.01797233883968,0.042360349539319,-0.044663037480441
02/21/2020-15:40:04.975586 -- 800043,0.5864655424611955,0.0,0.014135058139405104,1.0,0.0,-7.4540204527217995,13.5348718021095,5.9381498221421,209,7557.4239700375,0.031474039232403,0.019499751080376,-0.01004061421348
02/21/2020-15:40:04.991209 -- 800049,0.586490435211089,0.0,0.01411016538951159,1.0,0.0,-7.573700385138601,13.493425373536798,5.8906217106146,210,6846.1969140338,0.0014949745946781,-0.042195062024808,0.047528111527467
02/21/2020-15:40:05.006829 -- 800052,0.586574138001081,0.0,0.01402646259951952,0.0,0.0,-7.7448634250148,13.354060228200002,5.8699575501333,211,6766.9715536105,-0.020365624306475,-0.070701428074202,0.020664160481301
02/21/2020-15:40:05.022450 -- 800065,0.5866646656492067,0.0,0.013935934951393935,0.0,0.0,-7.9575647495253,13.2033316940709,5.7672657935584,212,6010.4780100937,-0.013156807233409,-0.085932176014324,0.10269175657493
02/21/2020-15:40:05.038072 -- 800077,0.5866511131056605,0.0,0.013949487494940061,0.0,0.0,-8.1581045713926,13.225896679075202,5.6768397027156,213,6155.8939724038,0.041953752568333,-0.052610063306359,0.090426090842752
02/21/2020-15:40:05.053692 -- 800091,0.586636648083796,0.0,0.013963952516804564,0.0,0.0,-8.3229283169202,13.249980940479599,5.5620926373952,214,6414.9608695652,0.040191039386368,-0.038351592992622,0.11474706532039
02/21/2020-15:40:05.069314 -- 800110,0.5865608824419305,0.0,0.014039718158670151,0.0,0.0,-8.5968788936328,13.3761307341858,5.4117492843799,215,6725.0210755814,0.094761179551513,-0.033840082911445,0.15034335301534
02/21/2020-15:40:05.084935 -- 800128,0.5865853529712369,0.0,0.014015247629363665,0.0,0.0,-8.9109132111498,13.335387302890501,5.2724084853345,216,6433.5288184438,0.076662183428651,-0.072675852264633,0.13934079904545
02/21/2020-15:40:05.100556 -- 800141,0.5866556535009901,0.0,0.01394494709961051,0.0,0.0,-8.947463034121201,13.218336920851499,5.1702494129482,217,6992.9682768565,-0.0083752341075138,-0.040024502029984,0.10215907238626
02/21/2020-15:40:05.116178 -- 800151,0.5866287022293611,0.0,0.013971898371239518,0.0,0.0,-8.9977430466624,13.263210788113799,5.0924189685444,218,6674.2675753228,0.021400491157659,0.0068480688642659,0.07783044440376
02/21/2020-15:40:05.131806 -- 800155,0.5866474229958681,0.0,0.013953177604732494,0.0,0.0,-9.100159100277,13.232040711879602,5.0596296744689,219,6415.5878136201,0.028212076960736,-0.021853788887417,0.032789294075501
02/21/2020-15:40:05.147427 -- 800154,0.5866305365329124,0.0,0.013970064067688167,0.0,0.0,-9.1835855707773,13.260156672700798,5.0708261583468,220,7077.0931899642,0.02933443165583,-0.00081508114016331,-0.011196483877912
02/21/2020-15:40:05.163042 -- 800154,0.5866532859583267,0.0,0.013947314642273934,0.0,0.0,-9.0700012272669,13.2222788793861,5.0704988185796,221,6159.2609318996,-0.039884765765017,0.0014521851693756,0.00032733976720886
02/21/2020-15:40:05.178664 -- 800151,0.5866558842666629,0.0,0.013944716333937717,0.0,0.0,-9.1915412091777,13.2179526960063,5.0932910131966,222,6152.5182795699,0.037258865290346,-0.015976635618976,-0.022792194616965
02/21/2020-15:40:05.209905 -- 800153,0.5866609007419726,0.0,0.013939699858627988,0.0,0.0,-9.3125757353295,13.209600264615599,5.077239839607,223,5948.2422939068,0.036558594815098,-0.017290454043951,0.016051173589603
02/21/2020-15:40:05.225534 -- 800159,0.5866634426962409,0.0,0.0139371579043597,0.0,0.0,-9.2848603020975,13.2053679107589,5.0284111840498,224,6322.5103942652,-0.0091801862311396,0.0017550599830553,0.04882865555719
02/21/2020-15:40:05.241147 -- 800162,0.586615258353758,0.0,0.013985342246842582,0.0,0.0,-9.507621880137,13.2855948409929,5.0106220277593,225,6444.7197132616,0.078864977038348,0.0030423953352765,0.017789156290523
02/21/2020-15:40:05.256769 -- 800161,0.5865917457209906,0.0,0.014008854879609971,0.0,0.0,-9.6470188165971,13.3247433745506,5.0118088119839,226,5936.3240143369,0.048248174690349,-0.0012082417176732,-0.0011867842246007
02/21/2020-15:40:05.272390 -- 800161,0.5865621803578088,0.0,0.014038420242791772,1.0,0.0,-9.793089394152,13.373969704248301,5.0110946475691,227,6543.605734767,0.051363414869342,0.0013351082367233,0.00071416441476135
02/21/2020-15:40:05.288025 -- 800161,0.5865548691763591,0.0,0.014045731424241502,1.0,0.0,-9.7207672219809,13.3861428213621,5.0127748810787,228,6286.7347670251,-0.021836532836011,0.010990779253855,-0.0016802335095711
02/21/2020-15:40:05.303633 -- 800152,0.5865091710740029,0.0,0.014091429526597718,1.0,0.0,-9.683678736576601,13.4622301617852,5.087354755402,229,5820.3254480287,-0.0032629199742511,0.028031992766499,-0.074579874323328
02/21/2020-15:40:05.319256 -- 800144,0.5863758455446865,0.0,0.014224755055914114,1.0,0.0,-9.794550689106,13.684217168097,5.1510151370283,230,6304.9741935484,0.063229138368581,0.053342710922752,-0.063660381626275
02/21/2020-15:40:05.334875 -- 800134,0.586213321227238,0.0,0.014387279373362583,1.0,0.0,-9.9540157540503,13.954820156648701,5.2266624424778,231,6297.5471562275,0.088623525610704,0.055789324641978,-0.075647305449533
02/21/2020-15:40:05.350503 -- 800124,0.5860504129466343,0.0,0.014550187653966366,1.0,0.0,-10.010110417785599,14.226062443854,5.3054377993707,232,6307.8705035971,0.063460363306131,0.067091343536876,-0.078775356892822
02/21/2020-15:40:05.366118 -- 800117,0.5859750621826231,0.0,0.014625538417977538,1.0,0.0,-10.0732342691676,14.351521465932601,5.3623863033248,233,6428.2262247839,0.041462171775965,0.021750044771583,-0.056948503954136
02/21/2020-15:40:05.381749 -- 800112,0.5859751998807344,0.0,0.014625400719866184,1.0,0.0,-10.105333300277099,14.351292198577198,5.3998999253477,234,6062.6570812365,0.008347986427067,-0.0066942243619296,-0.03751362202289
02/21/2020-15:40:05.397379 -- 800103,0.5859655123820315,0.0,0.01463508821856907,1.0,0.0,-10.1982224756685,14.367421883917501,5.469970720532,235,7178.7688984881,0.026786782596509,-0.016445838715956,-0.070070795184361
02/21/2020-15:40:05.412983 -- 800100,0.5858109288950548,0.0,0.014789671705545826,1.0,0.0,-10.272192035278799,14.624803389733799,5.4899730114406,236,6698.6157742402,0.077318885338739,0.044615750481627,-0.020002290908541
02/21/2020-15:40:05.428604 -- 800099,0.5857105951169878,0.0,0.014890005483612852,1.0,0.0,-10.3722423464244,14.7918591302154,5.5011878157977,237,5394.5375180375,0.062922804388273,0.015932301075681,-0.01121480435708
02/21/2020-15:40:05.444225 -- 800097,0.5856638778037809,0.0,0.0149367227968197,1.0,0.0,-10.349232236691599,14.8696434567048,5.5148270180626,238,5678.9558291093,0.013152631682912,0.023624461768133,-0.013639202264975
02/21/2020-15:40:05.459846 -- 800095,0.5856406159215083,0.0,0.014959984679092311,1.0,0.0,-10.3837128387204,14.908374490688699,5.5363593112396,239,5300.506512301,0.017277643923121,0.00052169561039921,-0.021532293176976
02/21/2020-15:40:05.491089 -- 800095,0.5855828816637659,0.0,0.015017718936834654,1.0,0.0,-10.344474646481999,15.004502029829698,5.5335157938088,240,5428.7478323699,0.01458474876473,0.031385970419124,0.002843517430845
02/21/2020-15:40:05.506711 -- 800091,0.5854685162768846,0.0,0.015132084323716096,1.0,0.0,-10.3496736883242,15.1949203989873,5.5643314945601,241,4946.7246376812,0.048280459452549,0.041244329696527,-0.030815700751339
02/21/2020-15:40:05.522331 -- 800082,0.5854199054876961,0.0,0.015180695112904565,1.0,0.0,-10.295449148826,15.2758573629861,5.638901735405,242,5225.5483636364,0.0095661948516867,0.031040490396419,-0.074570240844893
02/21/2020-15:40:05.537952 -- 800076,0.5853650156464112,0.0,0.01523558495418943,1.0,0.0,-10.3033513365123,15.3672489487254,5.6813287407661,243,4707.295404814,0.026278327257324,0.015638611899525,-0.04242700536112
02/21/2020-15:40:05.553574 -- 800072,0.5853298569956941,0.0,0.015270743604906547,1.0,0.0,-10.4036598736767,15.425788102169399,5.7137875251864,244,4298.9291970803,0.034743852376702,-0.017079968523168,-0.032458784420232
02/21/2020-15:40:05.569195 -- 800076,0.5852182858076672,0.0,0.015382314792933394,1.0,0.0,-10.469846480025,15.611554130234099,5.6828851372784,245,4471.5259365994,0.063812627760782,0.015790723106718,0.030902387907998
02/21/2020-15:40:05.584816 -- 800076,0.5851763327296744,0.0,0.015424267870926186,1.0,0.0,-10.6959375695514,15.6814060050921,5.6832617201036,246,3871.9015918958,0.061776111987379,-0.049046320163577,-0.00037658282525011
02/21/2020-15:40:05.600438 -- 800075,0.5850576441947516,0.0,0.01554295640584907,1.0,0.0,-10.7114408966775,15.8790224157387,5.6927061466283,247,3427.6142754146,0.057442120489945,0.032653905439832,-0.0094444265247067
02/21/2020-15:40:05.616060 -- 800075,0.5849369512105788,0.0,0.015663649390021864,1.0,0.0,-10.7551081122855,16.0799762343864,5.6891254027132,248,3809.9236861051,0.063701217320209,0.025317318438881,0.0035807439150873
02/21/2020-15:40:05.631688 -- 800070,0.5849471706688968,0.0,0.015653429931703843,1.0,0.0,-10.7155926854913,16.062960836286898,5.7276136318351,249,3433.1285198556,-0.011922239989997,0.0079718163297033,-0.038488229121846
02/21/2020-15:40:05.647313 -- 800066,0.5849501130579432,0.0,0.01565048754265736,1.0,0.0,-10.6101946472274,16.058061758524502,5.7570125771054,250,3335.6030478955,-0.019489836391138,0.029278007826551,-0.029398945270364
02/21/2020-15:40:05.662923 -- 800059,0.5848916367997975,0.0,0.015708963800803125,1.0,0.0,-10.556255788277701,16.155424728337202,5.8134119518236,251,3328.994173343,0.019927415300888,0.031301598610133,-0.056399374718118
02/21/2020-15:40:05.678544 -- 800053,0.5848189840716175,0.0,0.015781616528983126,1.0,0.0,-10.4622037903572,16.276391520756903,5.8624600059862,252,3460.7924528302,0.02289093185659,0.045664481188103,-0.049048054162673
02/21/2020-15:40:05.694165 -- 800048,0.5847528929945719,0.0,0.01584770760602871,1.0,0.0,-10.2778377150819,16.3864331640378,5.9033432332232,253,3077.2349528644,0.0098337095126453,0.070895632726014,-0.040883227237016
02/21/2020-15:40:05.709786 -- 800042,0.5848115118417353,0.0,0.015789088758865286,1.0,0.0,-10.1652518299812,16.2888327835107,5.9512079418063,254,3335.2741116751,-0.043575080256291,0.023842775342423,-0.047864708583061
02/21/2020-15:40:05.725408 -- 800038,0.5847722785877332,0.0,0.01582832201286745,1.0,0.0,-10.066891729420199,16.3541561514243,5.9811742120179,255,3426.6437364229,0.010469940133227,0.037941845977878,-0.029966270211577
02/21/2020-15:40:05.741029 -- 800028,0.5846847954363663,0.0,0.015915805164234298,1.0,0.0,-9.970645071093,16.499815598450102,6.0592760041696,256,3170.7225017973,0.038553851334407,0.043610687179897,-0.078101792151715
02/21/2020-15:40:05.756650 -- 800022,0.5846217621238571,0.0,0.015978838476743487,1.0,0.0,-9.9438414187893,16.6047660637779,6.1081370903105,257,3073.7177825774,0.032522341962077,0.015691115884347,-0.048861086140905
02/21/2020-15:40:05.772273 -- 800016,0.5845539398448119,0.0,0.01604666075578871,1.0,0.0,-9.8642386725591,16.7176901583882,6.1536337242946,258,2880.1258087707,0.033182781540506,0.031940330855256,-0.045496633984071
02/21/2020-15:40:05.803516 -- 800011,0.5844101843294655,0.0,0.016190416271135197,1.0,0.0,-9.865243447681799,16.9570430914401,6.1919340707692,259,2955.1039426523,0.079340027641207,0.008458016667221,-0.038300346474589
02/21/2020-15:40:05.834760 -- 800019,0.5843520995490787,0.0,0.01624850105152186,1.0,0.0,-10.0470672303495,17.0537542507839,6.1328090694221,261,2762.6929698709,0.003011911225271,-0.032644800391639,0.072090567654425
02/21/2020-15:40:05.850378 -- 800025,0.5843143743306674,0.0,0.016286226269933212,1.0,0.0,-10.1890877373657,17.1165667394388,6.0868288849487,262,3285.0286738351,0.028792154480305,-0.043022375608148,0.045980184473337
02/21/2020-15:40:05.866000 -- 800031,0.5842920604110735,0.0,0.01630854018952709,1.0,0.0,-10.3000398083046,17.153719415562602,6.0373267957211,263,2864.0330222541,0.020195642551267,-0.033370860317634,0.04950208922757
02/21/2020-15:40:05.881631 -- 800038,0.5842499492068166,0.0,0.016350651393784024,1.0,0.0,-10.5162702335925,17.2238345706504,5.9792471930891,264,2799.81276901,0.042064901041381,-0.063034600883039,0.058079602632003
02/21/2020-15:40:05.897255 -- 800047,0.5842063492601554,0.0,0.016394251340445285,1.0,0.0,-10.7106941397633,17.2964284818414,5.9070399897987,265,2934.6817204301,0.044436632381885,-0.053037252158141,0.072207203290457
02/21/2020-15:40:05.912864 -- 800054,0.5840970711444786,0.0,0.016503529456122042,1.0,0.0,-10.8633906415947,17.4783765444432,5.8514711761823,266,3189.3139784946,0.075782667078443,-0.022968138986043,0.055568813616432
02/21/2020-15:40:05.928485 -- 800059,0.5840389284676817,0.0,0.01656167213291898,1.0,0.0,-10.9587001501665,17.5751841013101,5.8162347837536,267,3783.4960573477,0.042867819258325,-0.014600405033015,0.035236392428669
02/21/2020-15:40:05.944108 -- 800060,0.5839729995586894,0.0,0.01662760104191123,1.0,0.0,-11.0115312309327,17.6849557347822,5.8067752233262,268,3477.7274031564,0.040597081615001,0.00093873678693879,0.0094595604274279
02/21/2020-15:40:05.959728 -- 800058,0.5838622602182254,0.0,0.016738340382375195,1.0,0.0,-11.0543624546007,17.8693367366547,5.8226291163649,269,3161.8931899642,0.061285420277347,0.015012759473191,-0.015853893038725
02/21/2020-15:40:05.975349 -- 800052,0.5837765149384975,0.0,0.016824085662103125,1.0,0.0,-11.0870250616536,18.012102627401703,5.8712732871204,270,3281.0394265233,0.047736635692747,0.010240624742199,-0.048644170755562
02/21/2020-15:40:05.990970 -- 800047,0.5836190976902362,0.0,0.016981502910364384,1.0,0.0,-11.091593259514799,18.274202345756702,5.9065909536813,271,3452.8136200717,0.081253000541122,0.032154793465586,-0.035317666560888
02/21/2020-15:40:06.006591 -- 800042,0.5835190452355431,0.0,0.017081555365057538,1.0,0.0,-11.0948547837042,18.4407896828208,5.9531400528593,272,3624.5211469534,0.052479653835689,0.018195396000307,-0.046549099177955
02/21/2020-15:40:06.022213 -- 800039,0.583392512348269,0.0,0.01720808825233159,1.0,0.0,-11.1062442960399,18.6514669401321,5.9756891056352,273,3551.89390681,0.067879047054791,0.018403836539213,-0.0225490527759
02/21/2020-15:40:06.037834 -- 800034,0.5832652616727219,0.0,0.0173353389278788,1.0,0.0,-11.1858225947097,18.8633393149182,6.013306752979,274,3827.5627240143,0.075257571192115,-0.0053224248236956,-0.0376176473438
02/21/2020-15:40:06.053455 -- 800029,0.5832068954121721,0.0,0.017393705188428532,1.0,0.0,-11.2185868673001,18.960519138733503,6.0492231958445,275,4188.2896057348,0.034094835698245,-0.002502339791233,-0.035916442865538
02/21/2020-15:40:06.069077 -- 800029,0.583206136033363,0.0,0.01739446456723754,1.0,0.0,-11.2574365574844,18.9617835044505,6.0494481446737,276,4217.0544802867,0.0034107868855325,-0.012499759328602,-0.00022494882920964
02/21/2020-15:40:06.084698 -- 800029,0.5831742894535168,0.0,0.01742631114708384,1.0,0.0,-11.3454729315222,19.014808059894598,6.0517628362298,277,3812.6738351254,0.023962756510017,-0.024481484520101,-0.0023146915560904
02/21/2020-15:40:06.100321 -- 800029,0.5830055677365069,0.0,0.01759503286409375,1.0,0.0,-11.4992246367579,19.2957297187161,6.0554067185321,278,4556.2716845878,0.1028472763325,-0.028594116337779,-0.0036438823022738
