timestamp -- motor_step_command,mfc1_stpt,mfc2_stpt,mfc3_stpt,led1_stpt,led2_stpt,ft_posx,ft_posy,ft_heading,ft_frame,ft_error,ft_roll,ft_pitch,ft_yaw
02/21/2020-15:32:10.782304 -- 799968,0.5946909227154145,0.0,0.0059096778851861174,0.0,0.0,0.093838118530575,-0.16038632116511398,0.24819652187988,2,5536.5506976744,-0.032665701315623,0.026185294019825,-0.14458663595442
02/21/2020-15:32:10.797925 -- 799950,0.5947522108160954,0.0,0.005848389784505175,0.0,0.0,0.18916155221721603,-0.262431008798883,0.38744075166384,3,5915.3171806167,-0.022398997212426,0.040843610178102,-0.13924422978396
02/21/2020-15:32:10.813546 -- 799932,0.5947895249268345,0.0,0.005811075673766204,0.0,0.0,0.24086108339276402,-0.32455900317927,0.52691629812957,4,6045.0595238095,-0.010983822224407,0.024623538312008,-0.13947554646573
02/21/2020-15:32:10.829178 -- 799915,0.5948476275216299,0.0,0.005752973078970745,0.0,0.0,0.35253933253020003,-0.42129982351371,0.66235480126001,5,5812.3743760399,-0.0058617314597395,0.048936343793062,-0.13543850313044
02/21/2020-15:32:10.844789 -- 799898,0.594907610249352,0.0,0.0056929903512485825,0.0,0.0,0.4163218051107,-0.52117106517111,0.79561269936778,6,5937.7308641975,-0.010675025709909,0.038058961724144,-0.13325789810777
02/21/2020-15:32:10.860410 -- 799886,0.5949465192610315,0.0,0.005654081339569087,0.0,0.0,0.44314208827338,-0.58595456961747,0.89026547365586,7,6105.4520325203,-0.0076942071056264,0.022077804696144,-0.094652774288085
02/21/2020-15:32:10.876033 -- 799876,0.5950222089794333,0.0,0.005578391621167357,0.0,0.0,0.5032654420689,-0.7119779507563501,0.97329390848486,8,6536.0024077047,-0.0089694749519691,0.045683878493442,-0.083028434828995
02/21/2020-15:32:10.891659 -- 799872,0.5950166670573556,0.0,0.005583933543245015,0.0,0.0,0.5268127111704599,-0.70275065049705,1.0016844993317,9,6498.6352201258,0.0082455615705359,0.0017560580986163,-0.028390590846828
02/21/2020-15:32:10.907275 -- 799873,0.5950205053420254,0.0,0.005580095258575141,0.0,0.0,0.5484824133697199,-0.70914139447239,0.99127950622906,10,6250.395280236,0.0049071183344184,0.0057125945265722,0.010404993102623
02/21/2020-15:32:10.922896 -- 799876,0.5950286498926648,0.0,0.005571950707935825,0.0,0.0,0.56025101681766,-0.7227020712868499,0.97023303044371,11,6514.4492968172,0.00074456809829937,0.0059387026713713,0.021046475785356
02/21/2020-15:32:10.938518 -- 799880,0.5950144898863785,0.0,0.00558611071422215,0.0,0.0,0.54778415097153,-0.69912566082012,0.93805351888196,12,6320.7643171806,0.0011546212314492,-0.0088149435459848,0.032179511561744
02/21/2020-15:32:10.954149 -- 799884,0.5950175888556107,0.0,0.005583011744989916,0.0,0.0,0.5062816231059,-0.70428544459179,0.90709716962572,13,6047.4638728324,-0.012066931508488,-0.006981854400895,0.030956349256248
02/21/2020-15:32:10.969779 -- 799888,0.5949888100631929,0.0,0.0056117905374077175,0.0,0.0,0.51862584015216,-0.65636875521615,0.87385996224994,14,5849.2462093863,0.013246430724163,-0.0098284665568914,0.033237207375774
02/21/2020-15:32:10.985383 -- 799888,0.5949871778961636,0.0,0.005613422704436979,0.0,0.0,0.50624852028792,-0.6536511971124299,0.8726923740339,15,5766.6523297491,-0.0025803006342276,-0.0033443422190801,0.0011675882160408
02/21/2020-15:32:11.001011 -- 799889,0.5949794332790368,0.0,0.005621167321563844,0.0,0.0,0.51078783236658,-0.6407564095962,0.86950214443715,16,5680.2083333333,0.0039256079325607,-0.0023139064868238,0.0031902295967475
02/21/2020-15:32:11.016674 -- 799887,0.5950046448080375,0.0,0.005595955792563141,0.0,0.0,0.52224681159312,-0.68273360538237,0.88608516092846,17,5673.341218638,-0.0060005263173075,0.01320512107984,-0.016583016491304
02/21/2020-15:32:11.032246 -- 799885,0.5950034949405777,0.0,0.005597105660022925,0.0,0.0,0.5223302563521299,-0.68081907606183,0.89573802927197,18,5808.5577060932,0.00042285536926137,-0.00047878924968731,-0.0096528683435132
02/21/2020-15:32:11.047866 -- 799884,0.5950050757277189,0.0,0.005595524872881682,0.0,0.0,0.5279826819064201,-0.6834510866519999,0.90631568909672,19,5610.9168458781,0.00093244961756604,0.0018574945379162,-0.010577659824754
02/21/2020-15:32:11.063488 -- 799886,0.5950042859075761,0.0,0.005596314693024421,0.0,0.0,0.53707457093397,-0.68213603611434,0.89117699181294,20,5653.7333333333,0.0026445469547169,0.0015438284904465,0.015138697283784
02/21/2020-15:32:11.079112 -- 799887,0.5949931231597033,0.0,0.005607477440897322,0.0,0.0,0.53591044751244,-0.6635500609059599,0.88515952900495,21,5262.8573476703,0.0036071411239324,-0.005051858129448,0.0060174628079917
02/21/2020-15:32:11.110351 -- 799886,0.5950116666787211,0.0,0.0055889339218795015,0.0,0.0,0.50275728959163,-0.69442502007063,0.89018683665433,22,5218.6107526882,-0.015067548900801,0.0010066317397679,-0.0050273076493833
02/21/2020-15:32:11.125973 -- 799887,0.5950115638898472,0.0,0.005589036710753448,0.0,0.0,0.51454094854086,-0.69425387659551,0.88523318530549,23,5473.4210903874,0.0030825910036724,0.002434996438738,0.0049536513488397
02/21/2020-15:32:11.141594 -- 799887,0.5950151819032721,0.0,0.005585418697328493,0.0,0.0,0.5025436357181999,-0.70027786894806,0.87992627402192,24,5415.2360114778,-0.0043642340445229,-0.00098913802037343,0.0053069112835729
02/21/2020-15:32:11.157215 -- 799893,0.5950255573975449,0.0,0.005575043203055645,0.0,0.0,0.478194528078,-0.71755306691235,0.83985815648792,25,5295.3511560694,-0.0099084464431876,-0.00093258968270549,0.040068117533997
02/21/2020-15:32:11.172837 -- 799901,0.595008356339638,0.0,0.005592244260962618,0.0,0.0,0.34375097420748,-0.68891330549724,0.77515659905204,26,5030.9224579371,-0.025786103913619,-0.037884587515958,0.064701557435881
02/21/2020-15:32:11.188459 -- 799921,0.594979030706438,0.0,0.005621569894162619,0.0,0.0,0.0256039710764112,-0.64008612621924,0.61862486435229,27,4990.0084226646,-0.055638452830376,-0.091857028296217,0.15653173469975
02/21/2020-15:32:11.204079 -- 799947,0.5949453666869129,0.0,0.005655233913687699,1.0,0.0,-0.21905779052448898,-0.58403553370998,0.41100726609968,28,4844.1789794364,-0.02393353963598,-0.080317645667565,0.20761759825262
02/21/2020-15:32:11.219701 -- 799973,0.5949091678842807,0.0,0.0056914327163198435,1.0,0.0,-0.50286255203664,-0.52376452732746,0.20726465674926,29,4936.6863636364,-0.0096588431434449,-0.096385587998245,0.20374260935042
02/21/2020-15:32:11.235322 -- 800001,0.594848348881491,0.0,0.005752251719109609,1.0,0.0,-0.72190884743106,-0.42250088768250005,6.2712867096471,30,4844.0473644003,0.026522338445322,-0.07610207307265,0.21916325428172
02/21/2020-15:32:11.250951 -- 800025,0.594801000497858,0.0,0.005799600102742583,1.0,0.0,-0.94894455806676,-0.3436658289336,6.0845975507775,31,5183.3428798727,0.034129362157552,-0.072598130590826,0.18668915886961
02/21/2020-15:32:11.266572 -- 800042,0.5947803010262555,0.0,0.005820299574345159,1.0,0.0,-1.00712550930669,-0.30920120871531,5.9520116626933,32,5015.0848,0.016175790424104,-0.015720520257496,0.13258588808418
02/21/2020-15:32:11.282186 -- 800054,0.5948136226533769,0.0,0.005786977947223754,0.0,0.0,-1.0829839986057,-0.36468171787245,5.8585600861167,33,4888.8599527931,-0.0078615065477771,-0.030335891035906,0.093451576576615
02/21/2020-15:32:11.297807 -- 800063,0.5948559974764692,0.0,0.005744603124131429,0.0,0.0,-1.2357334536003002,-0.43523579832117,5.7870800732035,34,5329.5162311956,0.0015516763802479,-0.056075255374804,0.07148001291321
02/21/2020-15:32:11.313428 -- 800061,0.5948421101941338,0.0,0.005758490406466798,0.0,0.0,-1.17502590541581,-0.41211347323278,5.7990256656139,35,4789.4886706949,-0.0027258457385859,0.021481835364081,-0.011945592410372
02/21/2020-15:32:11.329049 -- 800059,0.5948431275230633,0.0,0.005757473077537321,0.0,0.0,-1.17350915091669,-0.41380732590035996,5.8156794900894,36,4998.7311988086,-0.00073350073521287,0.0001907829281336,-0.016653824475494
02/21/2020-15:32:11.344671 -- 800053,0.5948394475726055,0.0,0.005761153027995087,0.0,0.0,-1.18819820772597,-0.40768020838818,5.8651560157453,37,5340.9846938776,0.00394360424396,-0.0035494957203325,-0.049476525655947
02/21/2020-15:32:11.360292 -- 800046,0.5948232936904985,0.0,0.005777306910102186,0.0,0.0,-1.11475329425442,-0.38078399467985996,5.9146076585278,38,4624.3844476744,-0.0011016121500324,0.026050823385956,-0.049451642782507
02/21/2020-15:32:11.375914 -- 800039,0.5948213460512848,0.0,0.005779254549315862,0.0,0.0,-1.10629986647901,-0.37754117538908993,5.9704438728213,39,4424.53125,7.7377570389728e-05,0.0030174014276864,-0.055836214293474
02/21/2020-15:32:11.407156 -- 800035,0.5948482933182366,0.0,0.005752307282364006,0.0,0.0,-1.11206707725819,-0.42240837486392996,6.0020154312711,40,4598.3947939262,-0.013739166061686,-0.0062147093581702,-0.031571558449796
02/21/2020-15:32:11.422777 -- 800033,0.5948628017747337,0.0,0.005737798825866925,0.0,0.0,-1.08051037152807,-0.44656495493157,6.0172686573615,41,4714.8286537077,-0.010594532132881,0.0079526218244735,-0.015253226090359
02/21/2020-15:32:11.438399 -- 800032,0.5948801509129239,0.0,0.005720449687676744,0.0,0.0,-1.0564580297863801,-0.47545127001822,6.0309704121843,42,4796.8654676259,-0.01136143077266,0.0052832658615556,-0.013701754822818
02/21/2020-15:32:11.454020 -- 800031,0.5948746786647336,0.0,0.005725921935866907,0.0,0.0,-1.06871438136774,-0.4663399767816,6.0371019953746,43,4644.6590093324,0.0039507138673869,-0.0032104212778331,-0.0061315831903423
02/21/2020-15:32:11.469642 -- 800031,0.5948784850670792,0.0,0.005722115533521394,0.0,0.0,-1.08448921055406,-0.47267763668688,6.0342393864165,44,4533.2507183908,-0.00075992021342294,-0.0056155938182081,0.0028626089580996
02/21/2020-15:32:11.485264 -- 800031,0.5948802590782805,0.0,0.005720341522320096,0.0,0.0,-1.08800961210024,-0.47563136533704004,6.0344161754713,45,4287.168579627,-0.00066522453765752,-0.0013798158841418,-0.00017678905481004
02/21/2020-15:32:11.500893 -- 800032,0.5948805777434465,0.0,0.005720022857154078,0.0,0.0,-1.10231738711412,-0.47616194283846003,6.0258297883204,46,4517.5247666906,0.0010228555256236,-0.0046616522849757,0.0085863871508835
02/21/2020-15:32:11.516507 -- 800032,0.5948782779904773,0.0,0.005722322610123304,0.0,0.0,-1.1364658872412199,-0.47233285414469994,6.0295071102964,47,4712.1465517241,0.004111885262282,-0.010690675193909,-0.0036773219759935
02/21/2020-15:32:11.532127 -- 800031,0.594879499494942,0.0,0.005721101105658655,0.0,0.0,-1.1055206029574398,-0.47436665907834,6.0351848921533,48,4360.7146953405,-0.0032171054327409,0.0098240153468603,-0.0056777818568488
02/21/2020-15:32:11.547748 -- 800031,0.5948756818873518,0.0,0.005724918713248709,0.0,0.0,-1.08325315880892,-0.4680103424409,6.0359446456215,49,4396.8544802867,0.00023491256170871,0.0077153900965697,-0.00075975346819578
02/21/2020-15:32:11.563369 -- 800030,0.5948867858035568,0.0,0.005713814797043808,0.0,0.0,-1.11579661729896,-0.48649836292206,6.041221717935,50,4321.8593974175,-0.0033522176537326,-0.012017350284609,-0.0052770723135384
02/21/2020-15:32:11.578991 -- 800030,0.594887137116627,0.0,0.00571346348397361,0.0,0.0,-1.13050615445181,-0.48708329918394,6.0472561013991,51,4015.1795977011,0.00097104234576816,-0.0048100235741782,-0.0060343834641315
02/21/2020-15:32:11.594612 -- 800030,0.5948947008027453,0.0,0.0057058997978552675,0.0,0.0,-1.14822037197228,-0.49967683657097994,6.044170135772,52,4265.5751258088,-0.0026909680683214,-0.0067265581048169,0.0030859656271729
02/21/2020-15:32:11.610233 -- 800029,0.5949120243405733,0.0,0.005688576260027249,0.0,0.0,-1.17139399957998,-0.52852052705463,6.0542990275514,53,4440.9515895954,-0.0075619528677485,-0.0097430219433817,-0.010128891779424
02/21/2020-15:32:11.625854 -- 800029,0.5950062213276293,0.0,0.005594379272971394,0.0,0.0,-1.2724822912746898,-0.68535851050263,6.0539247673807,54,4299.6504065041,-0.043262097378241,-0.044687202399585,0.00037426017067126
02/21/2020-15:32:11.641477 -- 800031,0.5950819953405521,0.0,0.005518605260048511,0.0,0.0,-1.37001057675705,-0.81152224201923,6.0328190396292,55,4869.7383458647,-0.033129964763314,-0.041568668096227,0.021105727751505
02/21/2020-15:32:11.657097 -- 800039,0.5950586292945999,0.0,0.005541971306000781,0.0,0.0,-1.52689169906493,-0.7726177755087,5.9723817486686,56,4789.8843338214,0.026945917593189,-0.04666423600804,0.060437290960634
02/21/2020-15:32:11.672718 -- 800051,0.5950155520793967,0.0,0.0055850485212038435,1.0,0.0,-1.6564879465480198,-0.7008942121956,5.8753852910188,57,4365.5619955979,0.037584545491391,-0.032045467121542,0.096996457649817
02/21/2020-15:32:11.688341 -- 800065,0.5950076666313017,0.0,0.005592933969298961,1.0,0.0,-1.83651232656216,-0.68776494111723,5.7676491348661,58,4598.7425149701,0.030662310873179,-0.051799957654129,0.10773615615272
02/21/2020-15:32:11.719582 -- 800078,0.5950262292271549,0.0,0.0055743713734457715,0.0,0.0,-2.03209993782864,-0.71867166321279,5.6689274447838,59,4808.7784615385,0.02620948328143,-0.060605440192898,0.098721690082224
02/21/2020-15:32:11.735209 -- 800089,0.5950473893940718,0.0,0.005553211206528889,0.0,0.0,-2.3013875870437204,-0.7539033411294,5.5777076048676,60,4789.9595238095,0.045761892958262,-0.078143542331302,0.091219839916224
02/21/2020-15:32:11.750832 -- 800100,0.595060300741085,0.0,0.005540299859515682,0.0,0.0,-2.5222539194005202,-0.77540073390639,5.4955114849218,61,4639.5855636659,0.044750912322124,-0.058922055967224,0.082196119945816
02/21/2020-15:32:11.766446 -- 800105,0.5950498863797714,0.0,0.005550714220829177,0.0,0.0,-2.60226346414197,-0.7580608223194201,5.450743512336,62,5194.0225988701,0.023304555061402,-0.014202224816922,0.044767972585815
02/21/2020-15:32:11.782068 -- 800113,0.5950350636395579,0.0,0.005565536961042691,0.0,0.0,-2.6504600119634096,-0.7333809598639199,5.3950730601019,63,5164.365967366,0.017545787406262,-0.0042429149810389,0.055670452234027
02/21/2020-15:32:11.797689 -- 800118,0.5950794385834651,0.0,0.005521162017135484,0.0,0.0,-2.65794169412208,-0.8072652414694201,5.3492180005411,64,5537.1774691358,-0.01312571132542,-0.020989971115865,0.045855059560841
02/21/2020-15:32:11.813310 -- 800119,0.5950982057055211,0.0,0.005502394895079519,0.0,0.0,-2.67450496694931,-0.8385124996926001,5.3421337164498,65,5392.4675615213,-0.0017135413832893,-0.011663390209137,0.0070842840912659
02/21/2020-15:32:11.828932 -- 800118,0.5950637357476488,0.0,0.005536864852951808,0.0,0.0,-2.65140800726172,-0.7811200198352399,5.3537158521724,66,5169.0407865987,0.0051604655389079,0.019965895258891,-0.011582135722556
02/21/2020-15:32:11.844557 -- 800116,0.5950430009479558,0.0,0.005557599652644799,1.0,0.0,-2.61667792532343,-0.74659657834641,5.3662409446326,67,5638.7716593245,-0.0022906259477939,0.016161866261435,-0.012525092460231
02/21/2020-15:32:11.860174 -- 800114,0.5951066156726715,0.0,0.005493984927929069,0.0,0.0,-2.58582945821829,-0.8525150949981,5.3863850546055,68,5221.7171052632,-0.029855110689599,-0.021470385846767,-0.020144109972847
02/21/2020-15:32:11.875795 -- 800109,0.5951135587680585,0.0,0.005487041832542114,0.0,0.0,-2.50111302675612,-0.86407534881738,5.4244486645981,69,5191.5010845987,-0.02418774409987,0.015077275337343,-0.038063609992654
02/21/2020-15:32:11.891416 -- 800103,0.5951028777738708,0.0,0.005497722826729754,0.0,0.0,-2.46759012929958,-0.84629149349496,5.4741246451455,70,4919.2806637807,-0.0042920713904566,0.011900191089588,-0.049675980547349
02/21/2020-15:32:11.907051 -- 800099,0.5950568763956268,0.0,0.0055437242049737896,1.0,0.0,-2.41769608530051,-0.7696991987186401,5.5052737824394,71,4881.8326149425,0.0060517378356444,0.029864168209675,-0.031149137293879
02/21/2020-15:32:11.922659 -- 800095,0.595073429037348,0.0,0.005527171563252708,0.0,0.0,-2.42689010350986,-0.7972593471842401,5.5360376953956,72,4768.7753779698,-0.0045260681226834,-0.0085621034181837,-0.030763912956276
02/21/2020-15:32:11.938280 -- 800091,0.5950779044009624,0.0,0.005522696199638222,0.0,0.0,-2.4027771029680203,-0.80471082760236,5.5612202136474,73,4462.8660907127,-0.0072308073298658,0.00430028089719,-0.025182518251816
02/21/2020-15:32:11.953904 -- 800091,0.595082059712553,0.0,0.005518540888047555,0.0,0.0,-2.39934351084012,-0.81162942140082,5.5644507355514,74,4639.017921147,-0.0024882687249948,-0.00066107761005025,-0.0032305219039425
02/21/2020-15:32:11.969536 -- 800089,0.5950789497863482,0.0,0.005521650814252385,0.0,0.0,-2.3772452079984303,-0.8064513942697801,5.5808418108781,75,4387.1311827957,-0.0034961876729115,0.0067094279615574,-0.016391075326714
02/21/2020-15:32:11.985156 -- 800089,0.595076963774191,0.0,0.0055236368264096995,0.0,0.0,-2.34996127030029,-0.80314468402785,5.578308094569,76,4481.599713056,-0.005043540252408,0.0076478921081223,0.0025337163091384
02/21/2020-15:32:12.000774 -- 800089,0.5950780319528929,0.0,0.005522568647707718,0.0,0.0,-2.3453094678435598,-0.8049232015666501,5.578633115672,77,4283.2802867384,-0.0014561275825689,0.00079719111793694,-0.00032502110299374
02/21/2020-15:32:12.016388 -- 800089,0.595082493966755,0.0,0.0055181066338455915,0.0,0.0,-2.35548989940267,-0.81235245464709,5.5785547082104,78,4514.7541218638,0.00031130789457969,-0.0041894414198462,7.8407461597232e-05
02/21/2020-15:32:12.047630 -- 800089,0.5950775901029491,0.0,0.005523010497651447,0.0,0.0,-2.34579739811568,-0.80418752141034,5.578338300326,79,4225.9376344086,-1.9750360772632e-05,0.0042243632768865,0.00021640788436663
02/21/2020-15:32:12.063251 -- 800089,0.5950768391867775,0.0,0.005523761413823141,0.0,0.0,-2.3394824913125998,-0.8029372459844699,5.5784755001093,80,4271.1003584229,-0.0010462678881427,0.0018734741402977,-0.00013719978332048
02/21/2020-15:32:12.078872 -- 800089,0.5951112434748996,0.0,0.005489357125700979,0.0,0.0,-2.3716496027405998,-0.86022038570787,5.5787435267093,81,4169.216954023,-0.0076027540802172,-0.020536862120962,-0.00026802659998104
02/21/2020-15:32:12.094493 -- 800089,0.5950799941199385,0.0,0.005520606480662114,0.0,0.0,-2.3526937282181404,-0.8081902096975799,5.5783478356058,82,3777.9448028674,0.0091200290295373,0.016048156926326,0.00039569110353706
02/21/2020-15:32:12.110117 -- 800088,0.5950812787063544,0.0,0.005519321894246222,0.0,0.0,-2.3310215044752,-0.8103290460800401,5.5851335547836,83,3829.5279770445,-0.0052064897043449,0.0050584779632455,-0.006785719177878
02/21/2020-15:32:12.125736 -- 800089,0.5950837335591583,0.0,0.005516867041442258,0.0,0.0,-2.34903957719418,-0.81441637599864,5.582332762898,84,3738.0207885305,0.0028241358684949,-0.0054729204973894,0.0028007918856378
02/21/2020-15:32:12.141360 -- 800089,0.5950707714843633,0.0,0.005529829116237304,0.0,0.0,-2.33243397619392,-0.79283452146489,5.5809742463986,85,3725.3068100358,0.0019227774600947,0.0088709818958102,0.0013585164993967
02/21/2020-15:32:12.156978 -- 800089,0.5950828644819032,0.0,0.005517736118697484,0.0,0.0,-2.35295971983171,-0.81296936236869,5.5785826296601,86,3568.170609319,-0.00069308038217856,-0.009559143939983,0.0023916167385164
02/21/2020-15:32:12.172600 -- 800089,0.5950846641565108,0.0,0.005515936444089718,0.0,0.0,-2.34424255045626,-0.81596582059062,5.5788371690772,87,3568.5913978495,-0.0026428975387315,0.0015671501957427,-0.00025453941711814
02/21/2020-15:32:12.188221 -- 800089,0.5950995970019736,0.0,0.005501003598627015,0.0,0.0,-2.36518055053542,-0.8408290082860199,5.5817806106062,88,3692.8157706093,-0.001811875935309,-0.010682449860532,-0.0029434415289859
02/21/2020-15:32:12.203842 -- 800089,0.5950781133734514,0.0,0.0055224872271491775,0.0,0.0,-2.3303349282795,-0.8050587667966199,5.5829897607626,89,3465.2394265233,0.0016235533513019,0.01656638001794,-0.0012091501564212
02/21/2020-15:32:12.219464 -- 800089,0.595080214237678,0.0,0.0055203863629226,0.0,0.0,-2.34493630380042,-0.8085567057338701,5.5801550525256,90,3361.0795698925,0.0022509111625268,-0.0044701040987262,0.0028347082370509
02/21/2020-15:32:12.235097 -- 800089,0.5950865796575213,0.0,0.005514020943079339,0.0,0.0,-2.3450252660485797,-0.8191551297729001,5.5786983563651,91,3510.7161290323,-0.0026742787723783,-0.0023086461266643,0.0014566961604313
02/21/2020-15:32:12.250726 -- 800089,0.5950899687065521,0.0,0.005510631894048493,0.0,0.0,-2.35292316342744,-0.8247978964092599,5.5813399934553,92,3281.3240143369,0.0002675901383773,-0.0032244415424318,-0.0026416370901645
02/21/2020-15:32:12.266329 -- 800089,0.5950840811726555,0.0,0.005516519427945105,0.0,0.0,-2.33860566274362,-0.8149951524714,5.5826285394471,93,3244.6207885305,-0.00058225692351384,0.0057545483988593,-0.0012885459918356
02/21/2020-15:32:12.281949 -- 800089,0.5950910692502337,0.0,0.005509531350366889,0.0,0.0,-2.3545693292902197,-0.8266303016391299,5.579487013511,94,3525.8035842294,0.00047564810717455,-0.006567423615749,0.0031415259361606
02/21/2020-15:32:12.297570 -- 800089,0.5950873702412465,0.0,0.005513230359354096,0.0,0.0,-2.35502889703566,-0.8204714516754301,5.5774540210193,95,3188.3003584229,0.0016631686046253,0.0012132362340985,0.0020329924916608
02/21/2020-15:32:12.313192 -- 800089,0.5950804139379227,0.0,0.005520186662677898,0.0,0.0,-2.34843329459562,-0.8088892066413,5.5784010798146,96,3177.2931899642,0.0015145895621702,0.0041767152185112,-0.00094705879526225
02/21/2020-15:32:12.328813 -- 800089,0.5950910435371238,0.0,0.0055095570634767985,0.0,0.0,-2.3550747238347,-0.82658748931113,5.5793783200018,97,3304.1068100358,-0.0030623284874054,-0.0055069361977687,-0.00097724018725364
02/21/2020-15:32:12.344434 -- 800089,0.5950886746207493,0.0,0.005511925979851322,0.0,0.0,-2.34725929659246,-0.8226432435475499,5.579749461763,98,3217.1505376344,-0.00068298224266628,0.0028370523778729,-0.00037114176114876
02/21/2020-15:32:12.375677 -- 800089,0.595081803439228,0.0,0.005518797161372636,0.0,0.0,-2.34300612670566,-0.81120272631456,5.5809551904646,99,2936.0559139785,0.0019933679764103,0.0035467240371288,-0.0012057287016634
02/21/2020-15:32:12.391298 -- 800089,0.5950862750329003,0.0,0.005514325567700258,0.0,0.0,-2.34188739541008,-0.8186479297790701,5.5805074035794,100,2958.6007168459,-0.0021351408226515,-0.0013188032552638,0.00044778688524826
02/21/2020-15:32:12.406919 -- 800089,0.5950889226728854,0.0,0.005511677927715285,0.0,0.0,-2.34551025440883,-0.82305625035405,5.5806585164127,101,3046.2652329749,-0.00034105162405371,-0.0018711717001275,-0.00015111283326143
02/21/2020-15:32:12.422541 -- 800089,0.5950885179039503,0.0,0.00551208269665024,0.0,0.0,-2.34884577869517,-0.82238231007735,5.5809172856732,102,2876.9591397849,0.0008897764387783,-0.00070353068502489,-0.00025876926056442
02/21/2020-15:32:12.438163 -- 800089,0.5950912216933474,0.0,0.005509378907253267,0.0,0.0,-2.3504521326020997,-0.8268841194233101,5.5800241493924,103,2852.9605451937,-0.00079903848481141,-0.0013784249942756,0.00089313628077769
02/21/2020-15:32:12.453784 -- 800089,0.5950888745796631,0.0,0.005511726020937555,0.0,0.0,-2.35188065729823,-0.8229761751389699,5.5794437651291,104,2958.3149210904,0.0013014334116951,0.00047948484704353,0.00058038426338735
02/21/2020-15:32:12.469405 -- 800089,0.5950854030800434,0.0,0.005515197520557177,0.0,0.0,-2.3531456944999802,-0.8171961282722999,5.5777418575135,105,2676.8222222222,0.0017410237602256,0.00092669036071721,0.0017019076155943
02/21/2020-15:32:12.485034 -- 800089,0.5950871018766373,0.0,0.005513498723963303,0.0,0.0,-2.35279566366528,-0.8200246246011,5.5771883386022,106,2776.2637992832,-0.00079330619825388,-0.00052269608165303,0.00055351891123434
02/21/2020-15:32:12.500648 -- 800089,0.5950850343234353,0.0,0.005515566277165285,0.0,0.0,-2.34894839104023,-0.8165821485197999,5.5774228182322,107,2733.482437276,4.1375478861842e-05,0.0017203598126182,-0.00023447962998938
02/21/2020-15:32:12.516269 -- 800089,0.5950846390264078,0.0,0.005515961574192799,0.0,0.0,-2.34613444938354,-0.81592397896899,5.580679265287,108,2743.9296987088,-0.00044001175820301,0.00085693047803103,-0.0032564470548308
02/21/2020-15:32:12.531890 -- 800089,0.595081161698242,0.0,0.005519438902358583,0.0,0.0,-2.34637067058084,-0.8101342275729599,5.5805351943457,109,2580.7505376344,0.0015237529016346,0.0011869950664039,0.00014407094135288
02/21/2020-15:32:12.547511 -- 800089,0.5950814011772686,0.0,0.005519199423332024,0.0,0.0,-2.3462192391321,-0.81053296015218,5.5806521339448,110,2516.3154121864,-0.00013405180493688,-4.7364046300223e-05,-0.00011693959913072
02/21/2020-15:32:12.563133 -- 800089,0.595082133111895,0.0,0.005518467488705627,0.0,0.0,-2.3446457299785903,-0.8117516313051301,5.5802617034621,111,2550.68723099,-0.00064896928482084,0.00013769543223052,0.00039043048268853
02/21/2020-15:32:12.578754 -- 800089,0.5950826231001574,0.0,0.005517977500443231,0.0,0.0,-2.34757597072872,-0.81256746176202,5.579964807014,112,2463.4594982079,0.00042407499250242,-0.0009209496221232,0.0002968964480963
02/21/2020-15:32:12.594376 -- 800089,0.5950824599119567,0.0,0.0055181406886438255,0.0,0.0,-2.3462782191187204,-0.8122957534080301,5.579816788029,113,2540.2265232975,-0.00021068794353417,0.00038851283232725,0.00014801898499058
02/21/2020-15:32:12.609996 -- 800089,0.5950823635707079,0.0,0.005518237029892709,0.0,0.0,-2.3453596614421803,-0.8121353452286401,5.5796534581205,114,2550.7641577061,-0.00015728060977155,0.00026808876620289,0.0001633299085889
02/21/2020-15:32:12.625618 -- 800089,0.5950828666446568,0.0,0.0055177339559437715,0.0,0.0,-2.34484442751387,-0.81297296335362,5.5800490011541,115,2414.1476702509,-0.00032402595408029,-4.9592523776813e-05,-0.00039554303364675
02/21/2020-15:32:12.656861 -- 800089,0.5950819234773952,0.0,0.005518677123205375,0.0,0.0,-2.34620390755578,-0.8114025898630501,5.5804119997298,116,2322.1692969871,0.00069232101090839,-7.3294637805428e-06,-0.0003629985757113
02/21/2020-15:32:12.672481 -- 800089,0.5950802146980753,0.0,0.005520385902525304,0.0,0.0,-2.34568944857088,-0.80855747229537,5.5804994199583,117,2349.0961262554,0.00061285281653607,0.00074379394199178,-8.7420228478747e-05
02/21/2020-15:32:12.688103 -- 800089,0.5950771162357944,0.0,0.00552348436480624,0.0,0.0,-2.34845340024012,-0.8033985325976101,5.5806277253139,118,2894.2050179211,0.0019077235437515,0.000408167395494,-0.00012830535558083
02/21/2020-15:32:12.703724 -- 800087,0.5950155631097025,0.0,0.005585037490898114,1.0,0.0,-2.30007432283062,-0.70091257765464,5.5956175519071,119,3681.4809763101,0.01590914584948,0.034264045400224,-0.014989826593253
02/21/2020-15:32:12.719346 -- 800080,0.5949222097254896,0.0,0.005678390875111015,1.0,0.0,-2.2591700183571,-0.54547919294016,5.6505066293329,120,3603.4565685571,0.032569273981349,0.042546656756655,-0.054889077425756
02/21/2020-15:32:12.734978 -- 800067,0.5948378899599903,0.0,0.005762710640610258,1.0,0.0,-2.19505820224989,-0.40508678338392,5.7504752544212,121,3668.0875807609,0.027326035565703,0.04361262627177,-0.099968625088334
02/21/2020-15:32:12.750604 -- 800052,0.5948223244611083,0.0,0.005778276139492312,1.0,0.0,-2.05749028662039,-0.37917022774529996,5.8687586746892,122,3419.1272465852,-0.013232409591693,0.044773707083442,-0.11828342026803
02/21/2020-15:32:12.766210 -- 800033,0.5947815795450937,0.0,0.005819021055506889,1.0,0.0,-1.9227869637075599,-0.31132994258103003,6.017335833018,123,3418.5910404624,0.0063435590726563,0.049915923584985,-0.14857715832872
02/21/2020-15:32:12.781831 -- 800016,0.594725155497969,0.0,0.005875445102631622,1.0,0.0,-1.80904854095172,-0.21738390411834901,6.1567198297694,124,3117.6996363636,0.023343235044985,0.043322035736799,-0.13938399675145
02/21/2020-15:32:12.797453 -- 800005,0.5946475089150619,0.0,0.005953091685538703,1.0,0.0,-1.87365225738405,-0.088102343578059,6.242088722183,125,3108.7684981685,0.044757517825279,-0.017857896178264,-0.085368892413645
02/21/2020-15:32:12.813073 -- 799998,0.5945269433862508,0.0,0.006073657214349846,1.0,0.0,-1.9121606862699903,0.11263926189249301,0.0097898122835964,126,3771.424535316,0.067113379947165,-0.011788376876645,-0.050886397280134
02/21/2020-15:32:12.828695 -- 799992,0.5944475861361058,0.0,0.006153014464494812,1.0,0.0,-1.9023497635153501,0.244769083383861,0.060593588154288,127,3978.2867756315,0.044135517427093,0.0017188182333915,-0.050803775870691
02/21/2020-15:32:12.844316 -- 799997,0.5944579496062474,0.0,0.006142650994353199,1.0,0.0,-2.01136706696868,0.227513905598076,0.018221674094376,128,3617.7798833819,-0.0071794311729829,-0.036086815751825,0.042371914059912
02/21/2020-15:32:12.859937 -- 800007,0.5945033876018845,0.0,0.00609721299871612,0.0,0.0,-2.12601974192436,0.151859642862339,6.2280565159328,129,4060.5333817126,-0.02451373566692,-0.038684518127943,0.073350465341129
02/21/2020-15:32:12.875560 -- 800011,0.59448006113345,0.0,0.006120539467150626,0.0,0.0,-2.17713042696891,0.19069821280579197,6.191024251382,130,4076.8454810496,0.014165404354052,-0.016039015070901,0.037032264550787
02/21/2020-15:32:12.891180 -- 800011,0.5944729587845483,0.0,0.006127641816052337,0.0,0.0,-2.1610571264502,0.202523623727142,6.1963744203633,131,3534.5946915352,0.0034472302089899,0.0056886012581267,-0.005350168981249
02/21/2020-15:32:12.906801 -- 800008,0.5944685673427377,0.0,0.006132033257862921,0.0,0.0,-2.16498945376308,0.20983537434176397,6.2162789323547,132,4018.788336933,0.002530739465057,-0.0011197841265882,-0.019904511991426
02/21/2020-15:32:12.922425 -- 800003,0.5944492595796473,0.0,0.006151341020953285,0.0,0.0,-2.18973790737834,0.24198279988722002,6.2543619342214,133,3757.5503258508,0.011098874207063,-0.0077277591657319,-0.038083001866723
02/21/2020-15:32:12.938045 -- 800002,0.5943995668438877,0.0,0.006201033756712888,1.0,0.0,-2.1473521371667497,0.32472120492696,6.2599106512736,134,3870.5631349782,0.027202150324542,0.014842151430707,-0.0055487170521521
02/21/2020-15:32:12.969287 -- 800006,0.5943842764985304,0.0,0.006216324102070186,1.0,0.0,-2.21633321217855,0.35017962994686,6.2340221360439,135,3906.7223427332,0.0093134444686058,-0.022671913561796,0.025888515229673
02/21/2020-15:32:12.984930 -- 800013,0.5943603285636516,0.0,0.006240272036948979,0.0,0.0,-2.25975312362307,0.39005294152005,6.1797972543616,136,3578.0346320346,0.014356997883116,-0.013419958598029,0.054224881682364
02/21/2020-15:32:13.000537 -- 800016,0.5943389756422272,0.0,0.00626162495837343,0.0,0.0,-2.30831365672893,0.42560555569175995,6.1498068024123,137,3811.652958153,0.013680185275376,-0.014674395903541,0.02999045194928
02/21/2020-15:32:13.016151 -- 800020,0.5943436268327057,0.0,0.006256973767894961,0.0,0.0,-2.3816808769356,0.41786132354511,6.1232593818581,138,4020.2955202312,0.001019973261384,-0.024571118340806,0.026547420554151
02/21/2020-15:32:13.031772 -- 800026,0.594298233721253,0.0,0.006302366879347555,0.0,0.0,-2.45045346345828,0.49344085411368,6.0773390560548,139,3870.8496023138,0.028944595955756,-0.017961526055496,0.045920325803278
02/21/2020-15:32:13.047393 -- 800028,0.59426134415651,0.0,0.006339256444090618,1.0,0.0,-2.50158347801697,0.55486197941088,6.0613326383232,140,4362.0795040117,0.023624571006285,-0.012310238129256,0.016006417731679
02/21/2020-15:32:13.063015 -- 800031,0.5942587346106104,0.0,0.006341865989990204,0.0,0.0,-2.5172282426290797,0.55920687333369,6.0341207246938,141,3985.8741912293,0.0026249954018252,-0.0047332935130927,0.027211913629383
02/21/2020-15:32:13.078636 -- 800031,0.5942989228817058,0.0,0.006301677718894816,0.0,0.0,-2.59869457781616,0.49229340195987,6.032809802773,142,4066.7784992785,-0.014901644525464,-0.031825298857324,0.0013109219208126
02/21/2020-15:32:13.094257 -- 800037,0.5941851720127851,0.0,0.006415428587815574,1.0,0.0,-2.6641756074135,0.68168859871293,5.9917309934121,143,4296.7151205259,0.066674682768068,-0.0041362963529707,0.04107880936086
02/21/2020-15:32:13.109878 -- 800044,0.5942585546162946,0.0,0.006342045984305988,0.0,0.0,-2.77602289595952,0.5595065638694701,5.935065945737,144,4184.0572463768,-0.026945686366653,-0.048201566963704,0.056665047675158
02/21/2020-15:32:13.125500 -- 800048,0.5941931861350029,0.0,0.0064074144655976994,0.0,0.0,-2.80778315717232,0.66834508522017,5.9035803301035,145,4499.1084425036,0.037673400849332,0.0030178607820656,0.03148561563349
02/21/2020-15:32:13.141121 -- 800052,0.5942386604315657,0.0,0.006361940169034853,0.0,0.0,-2.83437516508803,0.59263038144303,5.869621739065,146,4609.854978355,-0.019856384621181,-0.017925609787703,0.033958591038437
02/21/2020-15:32:13.156742 -- 800049,0.5941537882710708,0.0,0.006446812329529861,0.0,0.0,-2.934701359122,0.73394252866722,5.8955509727461,147,4641.076419214,0.05641758953605,-0.01242553868405,-0.025929233681058
02/21/2020-15:32:13.172363 -- 800047,0.5941316978677202,0.0,0.006468902732880384,1.0,0.0,-2.87101378418589,0.77072305024584,5.9100038612952,148,4424.8357452967,0.0035013800636593,0.024263977135335,-0.014452888549107
02/21/2020-15:32:13.187989 -- 800041,0.5941407077068233,0.0,0.006459892893777393,0.0,0.0,-2.77327184208993,0.7557216681393599,5.9582505552967,149,4275.5713251267,-0.01584335020181,0.028908286915588,-0.048246694001458
02/21/2020-15:32:13.203606 -- 800029,0.5941015621361266,0.0,0.006499038464474006,0.0,0.0,-2.71931146930389,0.8208990433492199,6.0540446171376,150,3993.1100719424,0.015983590506953,0.023251453503071,-0.095794061840969
02/21/2020-15:32:13.219227 -- 800023,0.5940337874886383,0.0,0.00656681311196233,1.0,0.0,-2.70051754576875,0.9337438314172799,6.1002347393847,151,3898.0,0.035540557156239,0.013828949279552,-0.046190122247074
02/21/2020-15:32:13.234851 -- 800017,0.5939290679425011,0.0,0.006671532658099447,1.0,0.0,-2.76603835227621,1.10810187573558,6.1473218087183,152,4137.8564139942,0.06085452375254,-0.012338991362708,-0.047087069333615
02/21/2020-15:32:13.250470 -- 800015,0.5938220177741496,0.0,0.0067785828264511055,1.0,0.0,-2.73998952358257,1.2863404060410901,6.1601436318589,153,4511.7287889775,0.057795197370217,0.016280077665363,-0.012821823140631
02/21/2020-15:32:13.281712 -- 800015,0.5937762021687112,0.0,0.0068243984318894476,1.0,0.0,-2.6816906760847496,1.36262338909593,6.160438040654,154,5060.2501812908,0.022853689993229,0.022403444350718,-0.00029440879509175
02/21/2020-15:32:13.297334 -- 800018,0.5937384513426471,0.0,0.006862149257953483,1.0,0.0,-2.72856464119596,1.42547851449255,6.1343129894778,155,4972.3403944485,0.022874859420939,-0.012644412386801,0.02612505117626
02/21/2020-15:32:13.312957 -- 800019,0.5937506259447343,0.0,0.006849974655866366,0.0,0.0,-2.7545023114377,1.4052078020175,6.132878813192,156,5079.9633883704,-0.0053929304026682,-0.0095563324613095,0.0014341762857949
02/21/2020-15:32:13.328577 -- 800014,0.593709495137441,0.0,0.006891105463159628,0.0,0.0,-2.7292699395783,1.47369059616078,6.1704856604854,157,5016.4678235719,0.021528832457348,0.011332051956447,-0.037606847293437
02/21/2020-15:32:13.344197 -- 800013,0.5937483767331277,0.0,0.006852223867472835,0.0,0.0,-2.72258284861977,1.40895273934227,6.1736458569517,158,4353.3273121387,-0.021693384831168,-0.00017766599022998,-0.003160196466276
02/21/2020-15:32:13.359819 -- 800009,0.5937297001393277,0.0,0.006870900461272907,0.0,0.0,-2.71486361157516,1.44004926801939,6.2074362175434,159,4585.479739508,0.010083467543441,0.0035211335819135,-0.03379036059173
02/21/2020-15:32:13.375440 -- 800005,0.5937065993738914,0.0,0.006894001226709267,0.0,0.0,-2.69253289364175,1.47851204247093,6.2407281463094,160,5150.5622286541,0.012359391212949,0.0081882457062735,-0.033291928765989
02/21/2020-15:32:13.391061 -- 800008,0.5936571002035522,0.0,0.006943500397048385,1.0,0.0,-2.65392650910345,1.56092816108556,6.2189934602313,161,5112.2139231327,0.026747587018619,0.014315005829609,0.021734686078108
02/21/2020-15:32:13.406684 -- 800007,0.5936438331990005,0.0,0.006956767401600078,1.0,0.0,-2.73699344366481,1.5830177236641298,6.2215476426037,162,4792.9387608069,0.0090895182003553,-0.027171255415764,-0.0025541823724078
02/21/2020-15:32:13.422305 -- 800006,0.5936069457866479,0.0,0.006993654813952763,1.0,0.0,-2.78456067764397,1.6444352652313499,6.231840801127,163,4816.1287272727,0.021335176356638,-0.014674612849911,-0.010293158523328
02/21/2020-15:32:13.437925 -- 800008,0.5936145089849169,0.0,0.0069860916156837,0.0,0.0,-2.7578472724308902,1.63184254011336,6.2132838125243,164,4656.8935251799,-0.0047294126659279,0.0086339131815916,0.018556988602719
02/21/2020-15:32:13.453547 -- 800009,0.593616694840943,0.0,0.006983905759657537,0.0,0.0,-2.7813230627070897,1.6282030898297999,6.2051790596986,165,4962.3007896626,-0.00063165460490515,-0.0078935299509671,0.0081047528256725
02/21/2020-15:32:13.469169 -- 800009,0.5935712878619569,0.0,0.007029312738643753,0.0,0.0,-2.81715424739619,1.7038057098418498,6.2067010492335,166,4610.5190784737,0.026047407502972,-0.0099634012321819,-0.0015219895348665
02/21/2020-15:32:13.484795 -- 800011,0.5935335192673317,0.0,0.007067081333268979,1.0,0.0,-2.79463492548405,1.76669041989285,6.1938385698013,167,5246.6368876081,0.020267999747333,0.0092167598648552,0.012862479432252
02/21/2020-15:32:13.500411 -- 800014,0.5934281015597913,0.0,0.007172499040809285,1.0,0.0,-2.79676632208035,1.9422109029474601,6.1685774123437,168,5383.6959361393,0.058276652569584,0.0052493898689175,0.02526115745759
02/21/2020-15:32:13.516034 -- 800012,0.5933540060705546,0.0,0.007246594530046096,1.0,0.0,-2.74127472005787,2.06557989252675,6.1827604690858,169,5046.0378181818,0.038900922472386,0.02280345282642,-0.014183056742159
02/21/2020-15:32:13.531655 -- 800010,0.5933711949485515,0.0,0.007229405652049123,1.0,0.0,-2.80113519329301,2.03696041066179,6.2014545699745,170,5287.995649021,-0.0076855839646746,-0.020738738273419,-0.018694100888669
02/21/2020-15:32:13.547275 -- 800010,0.5933552031614752,0.0,0.007245397439125483,0.0,0.0,-2.78237275843518,2.06358673614393,6.2036436977809,171,5467.2476601872,0.0083428401319282,0.0069487307754255,-0.0021891278064387
02/21/2020-15:32:13.562896 -- 800007,0.5933289033388555,0.0,0.007271697261745159,0.0,0.0,-2.79168117671382,2.10737594080569,6.2238862028317,172,5883.713150289,0.014776705748717,-0.0020828922033024,-0.020242505050759
02/21/2020-15:32:13.578527 -- 800004,0.5933086381568283,0.0,0.007291962443772277,0.0,0.0,-2.7581856634320596,2.14111746888084,6.2461582823414,173,5797.2110224801,0.010696799906105,0.011693939431978,-0.022272079509707
02/21/2020-15:32:13.609762 -- 800000,0.5932456988727377,0.0,0.007354901727862871,1.0,0.0,-2.69486309289669,2.24591137689168,6.2830322983823,174,4895.1558156547,0.034534734512429,0.021754367881003,-0.036874016040914
02/21/2020-15:32:13.625381 -- 799998,0.5931611056355157,0.0,0.007439494965084943,1.0,0.0,-2.71725319000512,2.38675911686643,0.0084898241039078,175,5052.0562546262,0.046917865414146,-0.00765902624329,-0.0086428329011784
02/21/2020-15:32:13.641007 -- 799996,0.5930448983051553,0.0,0.007555702295445376,1.0,0.0,-2.69420793041457,2.58024432191655,0.025347729517213,176,5557.1580502216,0.064616514856389,0.0065896013329511,-0.016857905413305
02/21/2020-15:32:13.656623 -- 799995,0.5929286308058298,0.0,0.007671969794770817,1.0,0.0,-2.70978580159824,2.77382970829341,0.038291473694468,177,5229.0490196078,0.064331019444693,-0.0072429661091629,-0.012943744177256
02/21/2020-15:32:13.672245 -- 799996,0.5928385072911494,0.0,0.007762093309451267,1.0,0.0,-2.64889330089207,2.92388536023636,0.028683735752613,178,6384.5510510511,0.050670277713186,0.018611498993072,0.0096077379418551
02/21/2020-15:32:13.687867 -- 799998,0.5928445875106755,0.0,0.007756013089925087,1.0,0.0,-2.59830833730204,2.91376179472527,0.011369036138756,179,6086.7853441895,-0.0030362252996482,0.016926046586074,0.017314699613857
02/21/2020-15:32:13.703488 -- 799996,0.5928387363069004,0.0,0.0077618642937001495,0.0,0.0,-2.6136653622179997,2.92350404901075,0.028131861462649,180,6177.8849493488,0.0031457231285832,-0.0051822006019182,-0.016762825323893
02/21/2020-15:32:13.719110 -- 799995,0.592844838135992,0.0,0.0077557624646086365,0.0,0.0,-2.57223615304353,2.91334450357338,0.039085783849247,181,6154.2449127907,-0.0029205747807053,0.013915798296384,-0.010953922386598
02/21/2020-15:32:13.734736 -- 799990,0.592819284036288,0.0,0.007781316564312583,0.0,0.0,-2.53874763405483,2.95589207958045,0.075812128974449,182,5607.4156804734,0.014800848509645,0.010330645028063,-0.036726345125202
02/21/2020-15:32:13.750355 -- 799987,0.5928117601146278,0.0,0.007788840485972889,0.0,0.0,-2.5280858339139303,2.96841940914486,0.094526398610999,183,5838.7924944812,0.0044630216846967,0.0031858769860385,-0.018714269636551
02/21/2020-15:32:13.765973 -- 799984,0.5927894283318923,0.0,0.007811172268708348,0.0,0.0,-2.50120034206827,3.0056018273994,0.12074999298273,184,5972.4013303769,0.013285540108385,0.0075786603117191,-0.026223594371729
02/21/2020-15:32:13.781594 -- 799979,0.5927578957275975,0.0,0.007842704873003124,1.0,0.0,-2.44935252772629,3.0581036135502,0.15758571021352,185,5587.0861561119,0.019729868078451,0.014688625039665,-0.036835717230792
02/21/2020-15:32:13.797215 -- 799972,0.5927501394544628,0.0,0.007850461146137898,0.0,0.0,-2.42423746742214,3.0710178083196,0.21247500182013,186,5912.4645257655,0.0057721245372495,0.0074376940603058,-0.054889291606614
02/21/2020-15:32:13.812837 -- 799968,0.5926707243835699,0.0,0.007929876217030691,1.0,0.0,-2.36487576396393,3.2032439013561,0.24857966632756,187,6158.5048399106,0.047433015429341,0.0091934304856036,-0.036104664507427
02/21/2020-15:32:13.828459 -- 799963,0.5926801030688819,0.0,0.0079204975317188,1.0,0.0,-2.25821097991899,3.1876283903118,0.28854270148188,188,5924.8276899925,0.0044159949601469,0.035663802559515,-0.039963035154316
02/21/2020-15:32:13.844080 -- 799956,0.592691418740161,0.0,0.0079091818604397,0.0,0.0,-2.18180500542738,3.1687877976321,0.34419414775356,189,6213.2838758516,0.001955455107695,0.026161730465218,-0.055651446271682
02/21/2020-15:32:13.859701 -- 799955,0.5926860615073195,0.0,0.007914539093281141,0.0,0.0,-2.1643524067894497,3.1777075903130996,0.34737648400897,190,5816.8955007257,0.0047690464098308,0.0044654472427552,-0.0031823362554146
02/21/2020-15:32:13.875324 -- 799954,0.592660285866883,0.0,0.007940314733717537,0.0,0.0,-2.12647659085488,3.2206240316396997,0.35569337151168,191,5971.6703216374,0.017778057836059,0.0069272570378785,-0.0083168875027071
02/21/2020-15:32:13.890943 -- 799959,0.5926237063372559,0.0,0.007976894263344745,1.0,0.0,-2.20546595412933,3.281528948469,0.31537400112287,192,6075.6179693207,0.010500487122446,-0.031548287439419,0.040319370388814
02/21/2020-15:32:13.922187 -- 799960,0.5925974200546013,0.0,0.008003180545999338,1.0,0.0,-2.17131720032946,3.3252956090889,0.31175687774118,193,5872.8486171761,0.01738862528865,0.0063279144624252,0.0036171233816837
02/21/2020-15:32:13.937807 -- 799960,0.5925739001396526,0.0,0.008026700460947988,1.0,0.0,-2.14416832103517,3.3644562674784,0.30760734875281,194,6603.7954876274,0.015190538908288,0.0046409962525474,0.0041495289883772
02/21/2020-15:32:13.953429 -- 799955,0.5925997911197216,0.0,0.008000809480878978,0.0,0.0,-2.08787159917176,3.3213477856635,0.35031849438325,195,5929.266088214,-0.0075370696051698,0.022403154372038,-0.042711145630447
02/21/2020-15:32:13.969057 -- 799951,0.5927290136154281,0.0,0.007871586985172492,0.0,0.0,-2.14148157544671,3.1061923303122,0.38437991812035,196,5974.5538461538,-0.073354819490258,0.0090798326137715,-0.034061423737093
02/21/2020-15:32:13.984684 -- 799951,0.5926995223740125,0.0,0.007901078226588167,0.0,0.0,-2.1792990613448397,3.1552952472693,0.37763326770289,197,5528.3114635905,0.010506406085692,-0.0177882958821,0.0067466504174541
02/21/2020-15:32:14.000293 -- 799952,0.5926512286251083,0.0,0.007949371975492312,1.0,0.0,-2.1349892230001704,3.2357043391947,0.37431477052465,198,5671.2434971098,0.030354072804555,0.0038967717098335,0.0033184971782465
02/21/2020-15:32:14.015914 -- 799955,0.5925969828075277,0.0,0.008003617793072853,1.0,0.0,-2.0782476144231596,3.3260236254663003,0.34604987500205,199,5753.7826398852,0.034841760366664,0.0070895804195966,0.028264895522599
02/21/2020-15:32:14.031535 -- 799958,0.5925193913800901,0.0,0.008081209220510512,1.0,0.0,-2.01383887057752,3.4552133521500004,0.32571818638864,200,6000.6622902991,0.047734067177446,0.0060761303015571,0.020331688613408
02/21/2020-15:32:14.047157 -- 799950,0.592454541205225,0.0,0.008146059395375556,1.0,0.0,-1.8281602223602502,3.5631888933002998,0.38666241725336,201,6098.5475830816,0.055323172241207,0.045464011346448,-0.060944230864716
02/21/2020-15:32:14.062777 -- 799940,0.5924838967846517,0.0,0.00811670381594889,0.0,0.0,-1.81022446803576,3.5143118535549003,0.47031252328493,202,6405.3330843913,-0.012338738224768,0.012210826127904,-0.083650106031574
02/21/2020-15:32:14.078399 -- 799929,0.5924565344447571,0.0,0.008144066155843484,0.0,0.0,-1.8086343110877898,3.5598701494794005,0.55241678892223,203,6135.750748503,0.013506401797099,-0.0069711763527065,-0.082104265637299
02/21/2020-15:32:14.094021 -- 799930,0.5924664750379837,0.0,0.008134125562616997,0.0,0.0,-1.8100516022484001,3.5433190617573,0.5427977380729,204,6022.8859649123,-0.0049562759766122,0.0024690792196656,0.0096190508493295
02/21/2020-15:32:14.109641 -- 799937,0.5924831720404096,0.0,0.008117428560191051,0.0,0.0,-1.83701566730787,3.5155185527181003,0.49456021503422,205,6439.4495210022,-0.012504812137203,-0.0032122830986584,0.048237523038676
02/21/2020-15:32:14.125263 -- 799948,0.5924352119299584,0.0,0.008165388670642221,0.0,0.0,-1.88239698109791,3.5953721366193,0.40515383779882,206,6016.2947214076,0.017397241320586,-0.025204392748524,0.089406377235409
02/21/2020-15:32:14.140884 -- 799959,0.5924361231742432,0.0,0.008164477426357357,0.0,0.0,-2.0180915069211602,3.593854914885,0.31686138640179,207,5549.2544931704,-0.016454692690838,-0.042150146595229,0.088292451397024
02/21/2020-15:32:14.156506 -- 799967,0.5923812953682831,0.0,0.008219305232317536,1.0,0.0,-2.14027438066806,3.6851432118086995,0.2547863888059,208,6140.3834422658,0.017714494253157,-0.047661983649405,0.062074997595892
02/21/2020-15:32:14.172127 -- 799976,0.5923421625672236,0.0,0.008258438033376997,1.0,0.0,-2.20297274122173,3.7502993255727,0.18372638516011,209,6275.3587115666,0.016656320180099,-0.025127967780108,0.071060003645787
02/21/2020-15:32:14.203369 -- 799984,0.5923037414681492,0.0,0.008296859132451411,1.0,0.0,-2.2920806232187196,3.8142704555315996,0.12541415466284,210,6160.1378039794,0.016498792379568,-0.032635743371394,0.058312230497268
02/21/2020-15:32:14.203369 -- 799991,0.5923006829869483,0.0,0.008299917613652312,0.0,0.0,-2.35160072863314,3.8193628267311,0.066518481451362,211,6051.9328467153,-0.00021143599252559,-0.019914093454987,0.058895673211483
02/21/2020-15:32:14.218998 -- 799998,0.5923165226417308,0.0,0.00828407795886979,0.0,0.0,-2.41036350107652,3.7929898015182,0.0098649073740718,212,6019.6970138383,-0.0095336945692512,-0.019240057533931,0.05665357407729
02/21/2020-15:32:14.234620 -- 799997,0.5922836765611811,0.0,0.00831692403941952,0.0,0.0,-2.44417231680657,3.8476785256335004,0.016271110197505,213,6050.9113372093,0.018080780045625,-0.011506878894517,-0.0064062028234328
02/21/2020-15:32:14.265855 -- 799998,0.5922742399686404,0.0,0.00832636063196024,0.0,0.0,-2.48841580990989,3.8633904522137996,0.0099811492250996,214,5748.6700581395,0.0050432890946277,-0.014815327079581,0.0062899609724049
02/21/2020-15:32:14.281476 -- 799997,0.5923537675148225,0.0,0.008246833085778078,0.0,0.0,-2.47169172781284,3.7309770878204995,0.018597768079164,215,5723.9138549892,-0.044053753107843,0.0062048265278451,-0.0086166188540641
02/21/2020-15:32:14.297098 -- 799993,0.5924480094476602,0.0,0.00815259115294042,0.0,0.0,-2.50452304913685,3.5740642696458,0.048854857770422,216,5711.1087113031,-0.052645434252524,-0.0091741824995042,-0.030257089691258
02/21/2020-15:32:14.312718 -- 799996,0.5924352142616187,0.0,0.008165386338981862,0.0,0.0,-2.51764255324998,3.5953682544048,0.024563736881024,217,5795.9595959596,0.0069362040130671,-0.0046309547526134,0.024291120889398
02/21/2020-15:32:14.328340 -- 799998,0.5924311072476658,0.0,0.008169493352934834,0.0,0.0,-2.58792267868503,3.6022064326364998,0.0092347237689956,218,5616.9310839914,0.0018832100591003,-0.023462096915731,0.015329013112028
02/21/2020-15:32:14.343962 -- 799999,0.5924227846362796,0.0,0.008177815964320961,0.0,0.0,-2.6263136100222,3.6160635805944,0.00025016481473336,219,5750.4411764706,0.0045583230262754,-0.012818779127976,0.0089845589542623
02/21/2020-15:32:14.359584 -- 800002,0.5924357289955328,0.0,0.008164871605067807,0.0,0.0,-2.6303463362085298,3.5945112224379,6.2612366000306,220,5854.5344332855,-0.0071692508242936,-0.0014221312553323,0.022198871963748
02/21/2020-15:32:14.375204 -- 800004,0.5924434980150669,0.0,0.008157102585533753,0.0,0.0,-2.65839210802398,3.5815758049137,6.2444766436548,221,6111.470545977,-0.0040263801121524,-0.0094751467030286,0.016759956375755
02/21/2020-15:32:14.390825 -- 800006,0.5924353940009658,0.0,0.008165206599634834,0.0,0.0,-2.67352125958995,3.595068988392,6.2320010848392,222,5950.1558908046,0.0047198050416956,-0.0048358980300135,0.012475558815597
02/21/2020-15:32:14.406446 -- 800007,0.5924129172782769,0.0,0.008187683322323664,0.0,0.0,-2.66177990236539,3.6324927316688997,6.2268484328009,223,5764.4434845212,0.012246265209414,0.0045784533665711,0.0051526520383291
02/21/2020-15:32:14.422068 -- 800007,0.5924043429813974,0.0,0.008196257619203123,0.0,0.0,-2.68121956494084,3.6467689359732,6.2264470879365,224,5481.1975574713,0.0051172929911392,-0.0062006299831432,0.00040134486436652
02/21/2020-15:32:14.437689 -- 800006,0.5924070561301227,0.0,0.008193544470477898,0.0,0.0,-2.69923698689421,3.6422515433457,6.2299191035433,225,5509.5929648241,-0.0011733548142165,-0.0060795083981217,-0.0034720156068215
02/21/2020-15:32:14.453329 -- 800005,0.5924150483228587,0.0,0.008185552277741863,0.0,0.0,-2.7001025625572703,3.6289445424402,6.2427941558451,226,5710.4684361549,-0.0044173266011174,-0.00049585264098432,-0.012875052301796
02/21/2020-15:32:14.468943 -- 800005,0.5924153532942594,0.0,0.008185247306341141,0.0,0.0,-2.70626826462642,3.628436765058,6.2390276183977,227,5312.2523297491,-8.225000177127e-05,-0.0020605521571426,0.0037665374473979
02/21/2020-15:32:14.484562 -- 800005,0.592416370490237,0.0,0.008184230110363663,0.0,0.0,-2.7120747650643002,3.6267431337555003,6.2368267831352,228,5284.7448028674,-0.00047639860935988,-0.0019590600765681,0.0022008352625489
02/21/2020-15:32:14.500174 -- 800006,0.5924156709288247,0.0,0.008184929671775917,0.0,0.0,-2.7173189654379,3.6279079035069,6.2344046185659,229,5149.4516129032,0.00047094097914916,-0.0017276274902692,0.0024221645693353
02/21/2020-15:32:14.515797 -- 800006,0.5924080970770178,0.0,0.008192503523582763,0.0,0.0,-2.70652486442379,3.6405183667653,6.2299688164727,230,4957.2810035842,0.0040146105770334,0.0038076376619999,0.0044358020931715
02/21/2020-15:32:14.531443 -- 800006,0.5924074996500621,0.0,0.008193100950538438,0.0,0.0,-2.7159666947069097,3.6415130826465,6.2282264579572,231,5015.8831541219,0.00050123301398427,-0.0031247494006001,0.0017423585154561
02/21/2020-15:32:14.547038 -- 800006,0.5924066168285906,0.0,0.00819398377200997,0.0,0.0,-2.70944018512266,3.6429829803966,6.2334626022174,232,4860.0882352941,0.000375479783434,0.0021981597607661,-0.0052361442602107
02/21/2020-15:32:14.562660 -- 800006,0.5924181877959861,0.0,0.008182412804614476,0.0,0.0,-2.6964543216846897,3.6237173196831005,6.2359716645261,233,5030.4548063128,-0.0066240652066967,0.0040124035284307,-0.002509062308698
02/21/2020-15:32:14.593910 -- 800006,0.5924104071216372,0.0,0.008190193478963484,0.0,0.0,-2.71079448811983,3.6366721424741995,6.2309917641632,234,4608.8200716846,0.004550433855097,-0.0045596112905301,0.0049799003629748
02/21/2020-15:32:14.609523 -- 800006,0.5924141848523136,0.0,0.008186415748287088,0.0,0.0,-2.71443852840027,3.630382220898,6.2302732655183,235,4581.7075268817,-0.00202994053429,-0.0013231367602515,0.00071849864484334
02/21/2020-15:32:14.625144 -- 800006,0.5924169920787921,0.0,0.008183608521808529,0.0,0.0,-2.7188852291003998,3.6257081888112,6.2292055206614,236,4708.131276901,-0.001476604470284,-0.0015633468343113,0.0010677448569311
02/21/2020-15:32:14.640772 -- 800006,0.5924134510292713,0.0,0.008187149571329249,0.0,0.0,-2.71652808536028,3.6316040362632,6.2305147085307,237,4482.3634408602,0.0019206105322553,0.00088934719130326,-0.0013091878692881
02/21/2020-15:32:14.656395 -- 800006,0.5924079781960607,0.0,0.00819262240453988,0.0,0.0,-2.70301755976932,3.6407163035589,6.2307226221771,238,4114.5476702509,0.0027966015125238,0.0046568813805512,-0.00020791364642138
02/21/2020-15:32:14.672009 -- 800006,0.5924096214267245,0.0,0.008190979173876097,0.0,0.0,-2.70002310122043,3.6379803245037,6.2303107465191,239,4254.2553802009,-0.00096327542421699,0.00094875753391045,0.00041187565804021
02/21/2020-15:32:14.687630 -- 800006,0.5924099850234045,0.0,0.008190615577196097,0.0,0.0,-2.70274826039976,3.6373749360314998,6.2309021189247,240,4235.5691756272,-0.00015377735670283,-0.00091773638729833,-0.00059137240565206
02/21/2020-15:32:14.703252 -- 800006,0.5924104137434894,0.0,0.008190186857111231,0.0,0.0,-2.70478973923392,3.6366611170902,6.2304002520668,241,4231.0969131371,-0.00020187872980756,-0.00069204834525232,0.00050186685791805
02/21/2020-15:32:14.718920 -- 800006,0.5924108424385693,0.0,0.00818975816203123,0.0,0.0,-2.70683274002517,3.6359473397819997,6.229998382802,242,4029.2692031587,-0.00020152526748354,-0.00069264536675738,0.00040186926479847
02/21/2020-15:32:14.734508 -- 800006,0.5924095523643568,0.0,0.008191048236243843,0.0,0.0,-2.71085726614641,3.638095313346,6.231171602135,243,4005.5161521895,0.00078553220433557,-0.0013020093690655,-0.0011732193330317
02/21/2020-15:32:14.750122 -- 800006,0.5924116995201869,0.0,0.008188901080413754,0.0,0.0,-2.7095652187057198,3.6345202988888996,6.2300632462936,244,4034.5792114695,-0.001212655041587,0.0003674727649185,0.0011083558414406
02/21/2020-15:32:14.765736 -- 800006,0.5924101104133322,0.0,0.008190490187268348,0.0,0.0,-2.7068631660496503,3.6371661618018,6.2294906094244,245,4129.1304659498,0.00083261552799372,0.00094648131521444,0.00057263686913946
02/21/2020-15:32:14.781358 -- 800006,0.5924092699979184,0.0,0.008191330602682222,0.0,0.0,-2.70330087709827,3.6385654534659,6.2306241868986,246,3716.5978494624,0.00040271648086641,0.0012105231251619,-0.0011335774741227
02/21/2020-15:32:14.796980 -- 800006,0.5924088425480072,0.0,0.008191758052593394,0.0,0.0,-2.70249407973477,3.6392771575680003,6.2310835185459,247,3651.1651112706,0.00022284272972647,0.00028097346538736,-0.00045933164729426
02/21/2020-15:32:14.812600 -- 800006,0.5924075003256838,0.0,0.008193100274916817,0.0,0.0,-2.70376646266806,3.6415119577365003,6.2303158821198,248,3640.0926724138,0.000766157971967,-0.00038446327435368,0.00076763642610669
02/21/2020-15:32:14.828222 -- 800006,0.5924073122598283,0.0,0.008193288340772313,0.0,0.0,-2.70260187625308,3.6418250873859,6.2297308069365,249,3705.7913978495,8.3601577704861e-05,0.00039319329710569,0.00058507518320677
02/21/2020-15:32:14.843843 -- 800006,0.5924099713080065,0.0,0.008190629292594113,0.0,0.0,-2.7043662521765404,3.6373977721691997,6.2308075856484,250,3478.770609319,-0.0014425993389816,-0.00066535778249708,-0.0010767787118104
02/21/2020-15:32:14.859464 -- 800006,0.5924093416862277,0.0,0.008191258914372853,0.0,0.0,-2.70688019365617,3.6384460924308,6.22977652807,251,3506.8644189383,0.00039325425146741,-0.00081833418825619,0.0010310575783595
02/21/2020-15:32:14.890707 -- 800006,0.5924097979569144,0.0,0.008190802643686186,0.0,0.0,-2.70739682338689,3.6376864017374997,6.2297570223959,252,3269.8414634146,-0.00024367418952586,-0.00018548501947748,1.95056740512e-05
02/21/2020-15:32:14.906328 -- 800006,0.5924082771706454,0.0,0.008192323429955194,0.0,0.0,-2.70705683960622,3.6402185108753997,6.2301674554837,253,3320.1952620244,0.00083681240533012,0.00015806845441758,-0.00041043308776098
02/21/2020-15:32:14.921949 -- 800006,0.5924090837035622,0.0,0.00819151689703844,0.0,0.0,-2.7035676533003397,3.638875633569,6.2306947929786,254,3255.3693304536,-0.00050833098231158,0.0011378409062994,-0.00052733749491873
02/21/2020-15:32:14.937571 -- 800006,0.5924089725298384,0.0,0.008191628070762222,0.0,0.0,-2.703676892397,3.6390607378190998,6.2304832600615,255,3155.7405017921,6.3530399264525e-05,-3.3118908979867e-05,0.00021153291717355
02/21/2020-15:32:14.953192 -- 800006,0.5924099225969248,0.0,0.008190678003675735,0.0,0.0,-2.70414011197026,3.6374788761201,6.2301752476658,256,3066.1413199426,-0.00051839332892991,-0.00018204823447153,0.00030801239563415
02/21/2020-15:32:14.968833 -- 800006,0.5924099194844877,0.0,0.008190681116112854,0.0,0.0,-2.7054288744067803,3.6374840583279,6.2302176994586,257,3029.0358680057,2.4477666447053e-05,-0.00042889302834548,-4.245179279512e-05
02/21/2020-15:32:14.984435 -- 800006,0.5924100083921562,0.0,0.008190592208444383,0.0,0.0,-2.7065552648937,3.6373360270598996,6.2292270931988,258,3138.570609319,-2.9209444468763e-05,-0.00037756385176324,0.00099060625985871
02/21/2020-15:32:15.000056 -- 800006,0.5924099967769548,0.0,0.008190603823645826,0.0,0.0,-2.70655447923114,3.6373553663703,6.229420619229,259,3040.7717782577,6.4229894836765e-06,6.0855431807223e-07,-0.00019352603028998
02/21/2020-15:32:15.015677 -- 800006,0.5924099951690899,0.0,0.00819060543151069,0.0,0.0,-2.70666713415978,3.6373580434652997,6.2295057290152,260,2949.7806451613,2.9074617482992e-06,-3.7449550935787e-05,-8.510978619249e-05
02/21/2020-15:32:15.031298 -- 800006,0.5924089475816197,0.0,0.008191653018980961,0.0,0.0,-2.70687023702484,3.6391022766033,6.2301808282489,261,2883.7315147164,0.00058419368102309,-3.6605722170235e-05,-0.00067509923362927
02/21/2020-15:32:15.046919 -- 800006,0.592409053626791,0.0,0.00819154697380961,0.0,0.0,-2.70387041002152,3.638925711393,6.2299130346112,262,3208.2519741565,-0.00011188230454036,0.00099540491612087,0.0002677936376373
02/21/2020-15:32:15.062541 -- 800006,0.592409453547619,0.0,0.00819114705298168,0.0,0.0,-2.7044279694406503,3.6382598432145,6.2298840940463,263,2825.6162123386,-0.00021174219221855,-0.00019741105832373,2.8940564901606e-05
02/21/2020-15:32:15.078163 -- 800006,0.5924090570965004,0.0,0.00819154350410024,0.0,0.0,-2.7053821398993003,3.6389199343269,6.2297908405865,264,2911.2695340502,0.00023667693991914,-0.00030587175540268,9.3253459806282e-05
02/21/2020-15:32:15.093784 -- 800006,0.5924090175097839,0.0,0.008191583090816636,0.0,0.0,-2.7055851319965303,3.6389858462096996,6.2304769740185,265,2891.60891445,2.5527705798146e-05,-6.6403811516102e-05,-0.00068613343198429
02/21/2020-15:32:15.109406 -- 800006,0.5924091645601195,0.0,0.00819143604048114,0.0,0.0,-2.70419360538048,3.6387410074010997,6.2307485162578,266,2757.5143472023,-0.00010587432019816,0.00045891272854447,-0.00027154223933224
02/21/2020-15:32:15.125026 -- 800006,0.5924093439382411,0.0,0.008191256662359519,0.0,0.0,-2.70439619236614,3.6384423428285997,6.2307778335255,267,2795.1068100358,-9.5879703722635e-05,-7.2652716851127e-05,-2.9317267660468e-05
02/21/2020-15:32:15.140647 -- 800006,0.592409475785648,0.0,0.008191124814952672,0.0,0.0,-2.70433985892822,3.6382228168962003,6.2303384233448,268,2542.1457286432,-7.406176806304e-05,1.4902582277398e-05,0.00043941018066087
02/21/2020-15:32:15.156269 -- 800006,0.5924109673976125,0.0,0.008189633202988168,0.0,0.0,-2.7062630254883997,3.6357392829753,6.2300091879918,269,2768.6276060388,-0.0007927143023911,-0.00068401971632155,0.00032923535307954
02/21/2020-15:32:15.187513 -- 800007,0.5923456416397597,0.0,0.00825495896084096,1.0,0.0,-2.7400633053084302,3.7445066698002,6.2249761086995,270,3679.7835875091,0.036826771280555,-0.0092311626811611,0.00503307929221
02/21/2020-15:32:15.203133 -- 800010,0.5923043589242921,0.0,0.00829624167630853,1.0,0.0,-2.8537511112508502,3.8132423910537003,6.1989161650791,271,4503.9159356725,0.02555186240554,-0.036169929181928,0.026059943620425
02/21/2020-15:32:15.218763 -- 800017,0.5923238601030795,0.0,0.008276740497521142,0.0,0.0,-2.86482927459552,3.7807729283727003,6.1465671562161,272,4653.9824561404,-0.010351311046533,-0.0048636630892893,0.052349008862991
02/21/2020-15:32:15.234376 -- 800024,0.5923714774930932,0.0,0.008229123107507447,0.0,0.0,-2.93903853593307,3.7014899739999,6.0906810935041,273,4323.0210297317,-0.022021002340385,-0.028735108892951,0.055886062712062
