timestamp -- motor_step_command,mfc1_stpt,mfc2_stpt,mfc3_stpt,led1_stpt,led2_stpt,ft_posx,ft_posy,ft_heading,ft_frame,ft_error,ft_roll,ft_pitch,ft_yaw
02/21/2020-15:27:03.051735 -- 799995,0.5944777080084241,0.0,0.00612289259217648,0.0,0.0,-0.089953637669004,0.19461616597383902,0.039005991218318,2,6372.9426456984,0.043902567140614,0.018367839972622,-0.023983567454041
02/21/2020-15:27:03.067368 -- 799993,0.5944099391015867,0.0,0.00619066149901397,1.0,0.0,-0.086606187000366,0.30745139585826,0.054489784237799,3,5771.8816254417,0.037623148516318,-0.00064303735679898,-0.015483793019481
02/21/2020-15:27:03.082986 -- 799998,0.5943985064366711,0.0,0.006202094163929447,1.0,0.0,-0.195834508575684,0.32648678294253,0.010811212588208,4,6107.0015936255,0.0051535560838479,-0.036599897352861,0.04367857164959
02/21/2020-15:27:03.114220 -- 800009,0.5944171573748482,0.0,0.006183443225752417,0.0,0.0,-0.35987824556769,0.295432970877774,6.2096757171833,5,5938.0207532667,-0.0086346506709608,-0.054994101652649,0.084320802584497
02/21/2020-15:27:03.129841 -- 800022,0.5944689975260158,0.0,0.006131603074584844,0.0,0.0,-0.40226190030414,0.20911911918376502,6.103537555505,6,6154.9004559271,-0.026769363551741,-0.017654738046715,0.10613816167827
02/21/2020-15:27:03.145462 -- 800033,0.5944478660988255,0.0,0.006152734501775145,0.0,0.0,-0.5244258074920201,0.24430294545561598,6.016302166339,7,6116.736349454,0.020459246674512,-0.037124875112621,0.087235389166017
02/21/2020-15:27:03.161084 -- 800042,0.5944342933048131,0.0,0.0061663072957874885,0.0,0.0,-0.64917665547306,0.26690164748616896,5.9507485413254,8,6248.8147566719,0.019475769826387,-0.03751314182838,0.065553625013628
02/21/2020-15:27:03.176706 -- 800047,0.594407316175344,0.0,0.006193284425256528,0.0,0.0,-0.73777865557317,0.31181856805212,5.9081556180841,9,6253.6980392157,0.024277678272906,-0.02252058790236,0.042592923241326
02/21/2020-15:27:03.192327 -- 800048,0.5943743357302871,0.0,0.00622626487031352,1.0,0.0,-0.8462045727420601,0.36673100907201,5.9023969008156,10,6495.8915022762,0.030348200294346,-0.026837938763386,0.0057587172684934
02/21/2020-15:27:03.207948 -- 800044,0.5943143774649171,0.0,0.006286223135683466,1.0,0.0,-0.91965673959243,0.46656152091297004,5.9373042424622,11,6300.5554716981,0.039807784092818,-0.011059823592662,-0.034907341646603
02/21/2020-15:27:03.223569 -- 800042,0.5942618788000973,0.0,0.006338721800503339,1.0,0.0,-0.98305594471983,0.55397179783806,5.9497085502606,12,6028.013137558,0.034513349425165,-0.010217709518934,-0.012404307798421
02/21/2020-15:27:03.239190 -- 800040,0.5942229857704688,0.0,0.006377614830131736,1.0,0.0,-1.05219603802491,0.61872869216934,5.9626387306232,13,6057.8826606876,0.027844847817316,-0.014891851350962,-0.012930180362566
02/21/2020-15:27:03.254811 -- 800040,0.5941586524855972,0.0,0.006441948115003393,1.0,0.0,-1.0764056292381299,0.7258436114806499,5.9673202579686,14,5870.4061331339,0.036437314648291,0.0035060234824338,-0.0046815273454885
02/21/2020-15:27:03.270433 -- 800037,0.5940590655197161,0.0,0.0065415350808844565,1.0,0.0,-1.0449950518791,0.89165590967262,5.9860927711754,15,5926.3525018671,0.049537039359989,0.026658045092887,-0.018772513206757
02/21/2020-15:27:03.286055 -- 800038,0.59402223811035,0.0,0.006578362490250619,1.0,0.0,-1.11869460096588,0.9529735462672799,5.9835390453558,16,6125.1890472618,0.026757778541001,-0.017472748190964,0.0025537258195839
02/21/2020-15:27:03.301687 -- 800034,0.5939732461605803,0.0,0.0066273544400202765,1.0,0.0,-1.15168806753138,1.03454514263376,6.0105173989911,17,6377.0509745127,0.029190007388743,-0.0028756768366285,-0.026978353635262
02/21/2020-15:27:03.317316 -- 800032,0.5939005025946588,0.0,0.006700098005941861,1.0,0.0,-1.11474387751386,1.1556631798932,6.0284585911691,18,6180.5029717682,0.035767704151243,0.02241253967944,-0.01794119217798
02/21/2020-15:27:03.332919 -- 800029,0.5938301914863613,0.0,0.006770409114239321,1.0,0.0,-1.09718104741521,1.27273117520847,6.0501474846808,19,5964.9317841079,0.036454926837855,0.015104187510618,-0.021688893511698
02/21/2020-15:27:03.348541 -- 800027,0.5937691916129582,0.0,0.006831408987642456,1.0,0.0,-1.10488395599547,1.37429596442469,6.0671447132607,20,6325.0288753799,0.033577144492446,0.0050349190417285,-0.016997228579982
02/21/2020-15:27:03.364161 -- 800029,0.5937522811459494,0.0,0.006848319454651303,1.0,0.0,-1.13720867014746,1.40245189199442,6.047854746343,21,6140.5912408759,0.011558624465257,-0.0084015913094883,0.019289966917696
02/21/2020-15:27:03.379782 -- 800028,0.5936959246026359,0.0,0.006904675997964781,1.0,0.0,-1.09018486278801,1.49628553661136,6.0557952188963,22,6156.539039039,0.026850345329681,0.022429088714942,-0.0079404725532969
02/21/2020-15:27:03.395404 -- 800028,0.5936458620333117,0.0,0.006954738567288853,1.0,0.0,-1.0457579520493199,1.57963971453594,6.0584664963985,23,6067.9728301887,0.023758646881586,0.020659715589393,-0.0026712775021851
02/21/2020-15:27:03.411025 -- 800028,0.5936188955312901,0.0,0.006981705069310474,1.0,0.0,-1.09526585909607,1.62453894040194,6.061664902983,24,5949.4413946588,0.018247014507918,-0.012781910253114,-0.0031984065844372
02/21/2020-15:27:03.442267 -- 800028,0.5935409226316783,0.0,0.007059677968922294,1.0,0.0,-1.1426909087136,1.75436381825562,6.0571854288568,25,6700.5048762191,0.045703984069409,-0.0058116430082349,0.0044794741261421
02/21/2020-15:27:03.457889 -- 800022,0.5934054850486066,0.0,0.00719511555199406,1.0,0.0,-1.1635087656304801,1.97986739407011,6.1065790768322,26,6258.5094637224,0.07504461998759,0.0082311555210612,-0.049393647975385
02/21/2020-15:27:03.473510 -- 800021,0.5932928353614935,0.0,0.007307765239107195,1.0,0.0,-1.19574124877403,2.1674291231134797,6.1119780003818,27,6156.6558800316,0.063436684691029,0.00023593011215085,-0.0053989235495849
02/21/2020-15:27:03.489132 -- 800020,0.5932396711693637,0.0,0.007360929431236942,1.0,0.0,-1.1626610801706,2.25594750300951,6.1235032496819,28,6354.5765069552,0.027287366938262,0.015735629259046,-0.011525249300108
02/21/2020-15:27:03.504753 -- 800017,0.593138746494109,0.0,0.007461854106491537,1.0,0.0,-1.0801256397721501,2.4239870873084097,6.1459695897102,29,6023.7200622084,0.051329041586492,0.035494519673289,-0.022466340028275
02/21/2020-15:27:03.520375 -- 800016,0.5929743170709144,0.0,0.007626283529686222,1.0,0.0,-1.06346329742181,2.69776207692756,6.1512995055197,30,6244.0355411955,0.089688551304882,0.017745795876812,-0.0053299158095742
02/21/2020-15:27:03.535995 -- 800015,0.5928158779254799,0.0,0.007784722675120762,1.0,0.0,-1.02280904531871,2.96156325407607,6.1592108938093,31,6488.5318444996,0.085486439604555,0.024659448144735,-0.0079113882895173
02/21/2020-15:27:03.551616 -- 800015,0.5927427943857501,0.0,0.00785780621485051,1.0,0.0,-1.00040794177512,3.0832473477261,6.1628336338522,32,6237.3440944882,0.039349167465593,0.012354175910763,-0.0036227400429055
02/21/2020-15:27:03.567244 -- 800012,0.5926736396155874,0.0,0.007926960985013214,1.0,0.0,-1.0177915730671798,3.198390040047,6.1842566778673,33,6003.4976,0.038785178661681,-0.0015601170183994,-0.021423044015092
02/21/2020-15:27:03.582859 -- 800009,0.5925908277515172,0.0,0.008009772849083484,1.0,0.0,-1.05249762323313,3.3362717937240003,6.2103318358086,34,6002.7637407711,0.046784824517988,-0.0075834874454266,-0.026075157941328
02/21/2020-15:27:03.598481 -- 800005,0.5925303996311968,0.0,0.008070200969403843,1.0,0.0,-1.0217704819920899,3.4368846140573996,6.2374553171342,35,6046.4525660964,0.032872685134264,0.012212070893051,-0.027123481325637
02/21/2020-15:27:03.614101 -- 800006,0.5924786455934399,0.0,0.00812195500716078,1.0,0.0,-0.9769181125442399,3.5230550869226995,6.2334911279244,36,6291.6149691358,0.027977757899573,0.016303723471195,0.0039641892098613
02/21/2020-15:27:03.629723 -- 800006,0.5923360551984094,0.0,0.008264545402191232,1.0,0.0,-1.0067272609760098,3.7604680946484,6.2282627705462,37,6205.4345794393,0.079549030913718,-0.0057851242648136,0.0052283573781898
02/21/2020-15:27:03.645346 -- 800007,0.5922682446382328,0.0,0.008332355962367808,1.0,0.0,-1.03621341770415,3.8733726773423998,6.222722923323,38,6501.0463320463,0.038139020146704,-0.0076423321095677,0.0055398472231536
02/21/2020-15:27:03.660965 -- 800010,0.5921793491896452,0.0,0.008421251410955375,1.0,0.0,-1.0311719143771199,4.0213835992407,6.2024528594629,39,6615.4310487201,0.049096324876427,0.0051565681293136,0.020270063860126
02/21/2020-15:27:03.676587 -- 800009,0.5921144506867265,0.0,0.008486149913874114,1.0,0.0,-1.07124445958094,4.1294396066004,6.2068251817593,40,6202.9930715935,0.036955749608501,-0.010490114820265,-0.0043723222963856
02/21/2020-15:27:03.707830 -- 800009,0.5919965830020061,0.0,0.008604017598594475,1.0,0.0,-1.03573064810679,4.3256893016598,6.2093726862788,41,6305.3706020328,0.064344227086566,0.016711864542992,-0.0025475045194823
02/21/2020-15:27:03.723452 -- 800008,0.5918753192074943,0.0,0.008725281393106367,1.0,0.0,-1.0841576004607498,4.5275935195220995,6.2193702010449,42,6400.0224179343,0.068252326274673,-0.011476542078025,-0.009997514766182
02/21/2020-15:27:03.739072 -- 800006,0.5918414242976419,0.0,0.0087591763029588,1.0,0.0,-1.06411146166671,4.5840285444264,6.2312228483852,43,6808.0441736481,0.018393665186326,0.0077592726753246,-0.011852647340248
02/21/2020-15:27:03.754694 -- 800005,0.5917664874719725,0.0,0.008834113128628168,1.0,0.0,-0.9996936005013,4.7087983591658995,6.236495202963,44,6683.1840490798,0.040480661529641,0.023497174076267,-0.0052723545778025
02/21/2020-15:27:03.770316 -- 800003,0.5916900164483667,0.0,0.008910584152233933,1.0,0.0,-0.96331401469743,4.8361226134695,6.254277524773,45,6421.6707787201,0.041953359789209,0.013721894946258,-0.017782321810021
02/21/2020-15:27:03.785936 -- 800007,0.5916126257968458,0.0,0.008987974803754835,1.0,0.0,-0.9663639906047101,4.9649780482518,6.2219333106941,46,6314.4830575256,0.042955746436995,0.00092001898434007,0.032344214078887
02/21/2020-15:27:03.801557 -- 800010,0.5915388960964382,0.0,0.009061704504162403,1.0,0.0,-0.96801313026321,5.0877379994304,6.1983415373596,47,6609.2511811024,0.040851865729232,0.0024382663516229,0.0235917733345
02/21/2020-15:27:03.817196 -- 800009,0.5914833276804059,0.0,0.009117272920194654,1.0,0.0,-1.0242959875403401,5.1802594121241,6.2108768711897,48,6102.4177708496,0.032218155985443,-0.016282334085687,-0.012535333830023
02/21/2020-15:27:03.832801 -- 800010,0.5914153167353935,0.0,0.009185283865207087,1.0,0.0,-0.95638113389667,5.2934976355698,6.201197942299,49,5911.1580570547,0.035889168830178,0.025480184563005,0.0096789288906186
02/21/2020-15:27:03.848423 -- 800006,0.5913592563414986,0.0,0.009241344259102042,1.0,0.0,-0.9381583150265099,5.3868381914049,6.2287740276669,50,6114.2554965883,0.030628159421311,0.008180671632139,-0.027576085367853
02/21/2020-15:27:03.864044 -- 800004,0.5912867557883973,0.0,0.009313844812203303,1.0,0.0,-0.8893440913452899,5.5075516123185,6.2471237994768,51,6361.3136363636,0.039461354277784,0.018074592663582,-0.018349771809902
02/21/2020-15:27:03.879664 -- 800002,0.591212578542405,0.0,0.009388022058195555,1.0,0.0,-0.7755389068737901,5.631056726895601,6.2652610220813,52,5886.1828703704,0.040130037285732,0.039032862489547,-0.018137222604549
02/21/2020-15:27:03.895285 -- 800000,0.5911593248221557,0.0,0.009441275778444926,1.0,0.0,-0.78339690078711,5.7197241711108,6.2813554761933,53,5610.2026194145,0.029580543246594,-0.0023273073368051,-0.016094454111964
02/21/2020-15:27:03.910908 -- 800000,0.5910745843943325,0.0,0.009526016206268167,1.0,0.0,-0.7312011207377099,5.8608169834365,6.2786151156627,54,5769.2490392006,0.046975034822347,0.017549008688458,0.0027403605305548
02/21/2020-15:27:03.926533 -- 799998,0.5909554808227906,0.0,0.00964511977780997,1.0,0.0,-0.6743848557610199,6.0591244300536,0.0085458171410968,55,5895.8244094488,0.06614044273911,0.018807444684534,-0.013116008657935
02/21/2020-15:27:03.942149 -- 799997,0.5908913944646493,0.0,0.009709206135951231,1.0,0.0,-0.63423565831512,6.1658282163588005,0.016773208558266,56,5806.9573312645,0.035734591745722,0.012931766991727,-0.0082273914171694
02/21/2020-15:27:03.957772 -- 799993,0.5908195267562353,0.0,0.009781073844365286,1.0,0.0,-0.55311071450478,6.2854879508682,0.049448408408636,57,5983.6020015396,0.040761623037087,0.025707462654541,-0.03267519985037
02/21/2020-15:27:03.973391 -- 799990,0.5907751274174579,0.0,0.009825473183142763,1.0,0.0,-0.52538289075105,6.359412849932699,0.071158516551478,58,5769.9294117647,0.025154328488992,0.0077408747927782,-0.021710108142841
02/21/2020-15:27:03.989019 -- 799988,0.5906946073292532,0.0,0.009905993271347448,1.0,0.0,-0.47034094659228,6.4934787967935,0.093182867712449,59,5537.843122102,0.046044652445236,0.014617719536025,-0.022024351160971
02/21/2020-15:27:04.020255 -- 799984,0.5906563143563079,0.0,0.009944286244292673,1.0,0.0,-0.46414799464685996,6.5572365967473,0.12354209026148,60,5521.8610891871,0.021351969231281,-0.00024627970429336,-0.030359222549029
02/21/2020-15:27:04.035878 -- 799985,0.5906215773381834,0.0,0.009979023262417178,1.0,0.0,-0.41632755148601996,6.6150737319246,0.11184432487274,61,5705.9530551416,0.021017506812066,0.013566170607221,0.01169776538874
02/21/2020-15:27:04.051533 -- 799986,0.5905385656358618,0.0,0.010062034964738798,1.0,0.0,-0.42385081922966994,6.7532882162901,0.10675977806047,62,5524.9772036474,0.045523050574683,-0.0075184864105634,0.0050845468122658
02/21/2020-15:27:04.067136 -- 799991,0.5904610754355951,0.0,0.010139525165005464,1.0,0.0,-0.49405653271242,6.882309399734099,0.065808750767601,63,5436.3227031131,0.040833030482969,-0.027022845240824,0.040951027292872
02/21/2020-15:27:04.082740 -- 799995,0.5904065848063809,0.0,0.010194015794219701,1.0,0.0,-0.7113547064997301,6.973036297375801,0.036253508528051,64,5778.0395655547,0.026509114489931,-0.073883581215987,0.02955524223955
02/21/2020-15:27:04.098362 -- 800001,0.5904233066603348,0.0,0.010177293940265826,0.0,0.0,-0.73173055129719,6.9451944105426,6.2679004480695,65,5532.6084021005,-0.0093522969147898,-0.0066949702719952,0.051538367638121
02/21/2020-15:27:04.113985 -- 800005,0.5903792717265685,0.0,0.010221328874032133,0.0,0.0,-0.8134546832341201,7.0185125752635,6.2380781841401,66,5146.0711610487,0.025251579837741,-0.026492019881743,0.029822263929407
02/21/2020-15:27:04.129605 -- 800006,0.5903698164306845,0.0,0.010230784169916097,1.0,0.0,-0.8325409779869399,7.0342556429103,6.2304113786164,67,5150.6360968452,0.0055526588051345,-0.0060977724446773,0.0076668055237307
02/21/2020-15:27:04.145225 -- 800007,0.5903380647347424,0.0,0.01026253586585826,0.0,0.0,-0.8334895052208,7.087122216654,6.2275048674049,68,5472.8458674609,0.017613430529759,0.00063942276435821,0.0029065112114483
02/21/2020-15:27:04.160847 -- 800007,0.5903387747113035,0.0,0.010261825889297176,0.0,0.0,-0.86260237324551,7.0859401056798,6.2258587180086,69,5338.9067734887,0.00015462659921469,-0.0097110559343476,0.0016461493963373
02/21/2020-15:27:04.176468 -- 800006,0.5903381182290808,0.0,0.01026248237151988,0.0,0.0,-0.8894571710711401,7.0870331485806,6.2304101107322,70,5551.4546773024,0.00085634102969758,-0.0089179980219781,-0.0045513927235844
02/21/2020-15:27:04.192093 -- 800003,0.5903252034732895,0.0,0.010275397127311053,0.0,0.0,-0.8837453085522,7.108536216972901,6.2587435031186,71,5189.465542522,0.0070890797379667,0.0021792686499795,-0.028333392386401
02/21/2020-15:27:04.207711 -- 800001,0.5902934655178382,0.0,0.010307135082762403,0.0,0.0,-0.88622051094885,7.1613799127994,6.2746540850288,72,4914.5359237537,0.017625947629078,-0.00053457101946393,-0.015910581910207
02/21/2020-15:27:04.223332 -- 800002,0.5902975774909883,0.0,0.010303023109612314,0.0,0.0,-0.92346876664485,7.154533477504501,6.262688937215,73,5091.5812274368,-0.0021017182865702,-0.012447968568316,0.011965147813767
02/21/2020-15:27:04.238954 -- 800004,0.5902905035668151,0.0,0.010310097033785466,0.0,0.0,-0.93341050559769,7.166311561252801,6.2511874632105,74,5078.064,0.0040116670240725,-0.003209753097339,0.011501474004548
02/21/2020-15:27:04.254576 -- 800003,0.5902640842688244,0.0,0.010336516331776277,0.0,0.0,-0.9783884456159699,7.210299692407499,6.2588554692345,75,4992.6737226277,0.015079124855007,-0.014573830788657,-0.0076680060240587
02/21/2020-15:27:04.270196 -- 800003,0.5902439574154847,0.0,0.010356643185115916,0.0,0.0,-0.94995447121656,7.243810903218,6.2570136191775,76,4789.0726744186,0.01092754302604,0.0097570025723306,0.0018418500570192
02/21/2020-15:27:04.285820 -- 800000,0.5902486977820762,0.0,0.010351902818524383,0.0,0.0,-0.9597889390293599,7.2359181928431004,6.2805876108553,77,4926.854978355,-0.0025835337166493,-0.0033157321962761,-0.0235739916778
02/21/2020-15:27:04.301448 -- 799999,0.5902456620036944,0.0,0.010354938596906185,0.0,0.0,-0.9678112863305999,7.2409727638487995,0.0043502451681938,78,4796.554676259,0.0016825162687927,-0.0026755961826783,-0.0069479414924726
02/21/2020-15:27:04.317064 -- 799998,0.5902510705465285,0.0,0.010349530054072131,0.0,0.0,-0.96579776421513,7.2319675400301,0.010650753199524,79,4568.1443965517,-0.0029966273915544,0.00069367058179031,-0.0063005080313304
02/21/2020-15:27:04.348303 -- 799997,0.5902576043386281,0.0,0.010342996261972492,0.0,0.0,-0.97206050633565,7.2210887761841995,0.016456928758773,80,4648.6570812365,-0.0036542202196869,-0.0020382434691113,-0.0058061755592486
02/21/2020-15:27:04.363924 -- 799998,0.5902532449743269,0.0,0.010347355626273754,0.0,0.0,-0.97539625734198,7.2283471177458,0.013719735684205,81,4524.4444444444,0.0024023961559311,-0.0011482948101458,0.0027371930745675
02/21/2020-15:27:04.379545 -- 799997,0.5902557263324887,0.0,0.010344874268111953,0.0,0.0,-0.98160509017359,7.2242156564064,0.017584976469505,82,4368.4010043042,-0.0014093788716478,-0.0020478037995075,-0.0038652407852996
02/21/2020-15:27:04.395167 -- 799998,0.5902535024049204,0.0,0.010347098195680242,0.0,0.0,-0.95537853492399,7.2279184958076,0.015443637703581,83,4544.6180904523,0.0013784763102082,0.0087206122285252,0.002141338765924
02/21/2020-15:27:04.410790 -- 799997,0.5902682948129089,0.0,0.010332305787691773,0.0,0.0,-0.95869063449381,7.2032891365068,0.020773701628513,84,4249.819683908,-0.0082284409888887,-0.00095519305009184,-0.0053300639249319
02/21/2020-15:27:04.426410 -- 799997,0.5902843543926514,0.0,0.01031624620794925,0.0,0.0,-0.93599688604482,7.1765499362355,0.022395834672245,85,4708.3704235463,-0.0087477243402799,0.0077551930448496,-0.0016221330437317
02/21/2020-15:27:04.442030 -- 799997,0.5902796646482623,0.0,0.010320935952338258,0.0,0.0,-0.95295174926988,7.1843583606432,0.019410773867955,86,4571.1311827957,0.0024841114233471,-0.0057047917013338,0.0029850608042892
02/21/2020-15:27:04.457652 -- 799997,0.5902579604358551,0.0,0.010342640164745466,0.0,0.0,-0.9821802346719299,7.2204958743012,0.018088134033626,87,3976.0301075269,0.011861059438451,-0.0099669563419683,0.0013226398343297
02/21/2020-15:27:04.473273 -- 799997,0.5902511086115213,0.0,0.01034949198907934,0.0,0.0,-0.97531208114949,7.2319041618171,0.016311169521509,88,4178.1082437276,0.0038415751859884,0.0022236431919542,0.0017769645121171
02/21/2020-15:27:04.488894 -- 799997,0.5902551641039638,0.0,0.010345436496636818,0.0,0.0,-0.97273600225329,7.2251517669003,0.021308934393581,89,4052.2417503587,-0.0022342512038617,0.00090087707479924,-0.0049977648720727
02/21/2020-15:27:04.504516 -- 799997,0.5902538346113213,0.0,0.01034676598927934,0.0,0.0,-0.96933899358564,7.2273653721501,0.021377788055958,90,3861.5225806452,0.00076186638531188,0.0011163309243582,-6.8853662376955e-05
02/21/2020-15:27:04.520143 -- 799997,0.5902536105910934,0.0,0.010346990009507267,0.0,0.0,-0.97863293200866,7.2277383658296,0.020391137444051,91,3630.3964157706,5.9609181740002e-05,-0.0030999004103114,0.00098665061190689
02/21/2020-15:27:04.535760 -- 799997,0.5902532036458391,0.0,0.0103473969547615,0.0,0.0,-0.9836067768904501,7.2284159296779,0.019088347176231,92,3688.3476702509,0.00019308528069421,-0.0016620834210741,0.0013027902678204
02/21/2020-15:27:04.551379 -- 799997,0.590255109692827,0.0,0.010345490907773574,0.0,0.0,-0.98277610303713,7.225242361443,0.01910247750215,93,3564.8,-0.0010523761866539,0.00029703977429201,-1.413032591952e-05
02/21/2020-15:27:04.567011 -- 799997,0.5902561476371297,0.0,0.01034445296347087,0.0,0.0,-0.97234950699036,7.223514184179,0.019867385591639,94,3628.4437275986,-0.00050823353068321,0.0034860961131142,-0.00076490808948861
02/21/2020-15:27:04.582622 -- 799997,0.5902501518627283,0.0,0.010350448737872314,0.0,0.0,-0.97218374356176,7.2334971485574,0.019331953119872,95,3610.9612903226,0.0033280985962798,-9.9728945035793e-06,0.00053543247176682
02/21/2020-15:27:04.598244 -- 799997,0.5901636748018196,0.0,0.010436925798780961,1.0,0.0,-0.97130514766977,7.377481454970299,0.021894518178019,96,3813.9687964339,0.047990621329188,-0.00069645451813873,-0.0025625650581472
02/21/2020-15:27:04.629486 -- 799997,0.590023526573149,0.0,0.010577074027451592,1.0,0.0,-1.02359878708896,7.610828255706899,0.015888067719295,97,4157.0894371627,0.077439218385982,-0.018897449621408,0.0060064504587247
02/21/2020-15:27:04.645109 -- 799998,0.5899092450683943,0.0,0.010691355532206365,1.0,0.0,-1.15813748100768,7.801106961123599,0.012002168755609,98,4141.4390625,0.062794739416259,-0.045726355489346,0.0038858989636861
02/21/2020-15:27:04.660729 -- 800001,0.5898522679300894,0.0,0.010748332670511233,1.0,0.0,-1.26846445088622,7.8959738964012,6.2678578020122,99,4360.742133538,0.03168433815828,-0.036724099867188,0.027329673923044
02/21/2020-15:27:04.676350 -- 800004,0.5897722478777327,0.0,0.010828352722867807,1.0,0.0,-1.2659684252353198,8.0292072835749,6.2451536458669,100,4423.6353211009,0.044374022568317,0.0020164829137278,0.022704156145256
02/21/2020-15:27:04.691973 -- 800004,0.589665852899778,0.0,0.010934747700822582,1.0,0.0,-1.24909906263858,8.2063549218696,6.2446868539389,101,4729.3438485804,0.058790871643028,0.0078779748519573,0.0004667919279953
02/21/2020-15:27:04.707593 -- 800006,0.5895659747034159,0.0,0.011034625897184746,1.0,0.0,-1.2357526219452,8.3726521188126,6.2334241741071,102,4477.5700787402,0.055182444063868,0.0068899429124951,0.011262679831773
02/21/2020-15:27:04.723215 -- 800006,0.5895121493700793,0.0,0.01108845123052132,1.0,0.0,-1.2091685401388401,8.462271298817999,6.2317989670673,103,4842.4228346457,0.029386906869358,0.010360180046493,0.0016252070397895
02/21/2020-15:27:04.738836 -- 800000,0.5894002495945405,0.0,0.01120035100606006,1.0,0.0,-1.2218351776076999,8.64858442509,6.2774726212436,104,4644.9741985927,0.062204661822595,-0.002447882541342,-0.045673654176278
02/21/2020-15:27:04.754457 -- 799997,0.5892638530153282,0.0,0.011336747585272313,1.0,0.0,-1.16344872431997,8.875684729478401,0.020610611883202,105,4970.4507936508,0.075845025671666,0.018898240627055,-0.026323297819173
02/21/2020-15:27:04.770078 -- 799994,0.5891901403603735,0.0,0.011410460240227087,1.0,0.0,-1.0626153929701199,8.9984162999781,0.040689255605819,106,5074.907248636,0.041921986164998,0.032342125042545,-0.020078643722617
02/21/2020-15:27:04.785700 -- 799988,0.5891416912446441,0.0,0.011458909355956455,1.0,0.0,-1.05814113193749,9.079084077667499,0.087455153815469,107,5026.0838658147,0.026931878579343,-0.00023333544057861,-0.046765898209649
02/21/2020-15:27:04.801327 -- 799986,0.5890750560650755,0.0,0.011525544535525106,1.0,0.0,-0.99137942211447,9.190031651649301,0.10622128455091,108,5042.9399696049,0.038961453449155,0.018574168690629,-0.01876613073544
02/21/2020-15:27:04.816952 -- 799980,0.5890142657604065,0.0,0.011586334840194114,1.0,0.0,-0.9143666837118,9.291247508923199,0.15004924065787,109,5541.9117876659,0.036745139163807,0.021150760585302,-0.043827956106961
02/21/2020-15:27:04.832563 -- 799978,0.5889996924912434,0.0,0.011600908109357178,1.0,0.0,-0.86417902465506,9.3155120020797,0.17185063011961,110,5316.3787878788,0.010664783649675,0.015217108984297,-0.021801389461739
02/21/2020-15:27:04.848186 -- 799975,0.5890044563452776,0.0,0.011596144255322943,0.0,0.0,-0.8806375042503,9.3075801851127,0.19023267047963,111,5219.0649056604,-0.003588582254244,-0.004920510129721,-0.018382040360017
02/21/2020-15:27:04.863807 -- 799974,0.5890075424213417,0.0,0.011593058179258979,0.0,0.0,-0.9204513062639099,9.3024418684662,0.1997944895293,112,5270.9394387001,-0.0042520261636826,-0.012687855528894,-0.0095618190496749
02/21/2020-15:27:04.879427 -- 799974,0.5890053262279041,0.0,0.011595274372696456,0.0,0.0,-0.90154943744355,9.3061318305396,0.20406136319091,113,5078.2303815695,0.002468641119087,0.0059259250733944,-0.0042668736616112
02/21/2020-15:27:04.895048 -- 799973,0.589004838776763,0.0,0.011595761823837538,0.0,0.0,-0.90255239119602,9.306943436689501,0.20870660503164,114,5098.4794223827,0.00019628524546837,-0.00038266209341889,-0.0046452418407309
02/21/2020-15:27:04.910671 -- 799975,0.5890079145035249,0.0,0.011592686097075734,0.0,0.0,-0.88622055616485,9.301822351631099,0.18969843353569,115,4847.4780417567,-0.0005959901012121,0.0056741693403863,0.019008171495952
02/21/2020-15:27:04.941915 -- 799977,0.5889987048331237,0.0,0.011601895767476998,0.0,0.0,-0.9052785178301099,9.3171564528492,0.18000477876797,116,4842.4660894661,0.0038566795697306,-0.0071839261920873,0.0096936547677219
02/21/2020-15:27:04.957534 -- 799977,0.5890035482355424,0.0,0.011597052365058258,0.0,0.0,-0.91024410523038,9.309092187822,0.18000085259762,117,4886.2460545194,-0.0029409909894704,-0.0011471983580904,3.9261703520014e-06
02/21/2020-15:27:04.973156 -- 799976,0.5890067974078665,0.0,0.011593803192734113,0.0,0.0,-0.91489246894278,9.3036823159023,0.18317282698115,118,4749.9971181556,-0.0020534592494576,-0.0011983222242118,-0.0031719743835284
02/21/2020-15:27:04.988777 -- 799975,0.5890146910344702,0.0,0.011585909566130329,0.0,0.0,-0.8825501918070899,9.290539427607,0.18979526309605,119,4749.906025825,-0.0023062031945106,0.011406116392026,-0.0066224361149006
02/21/2020-15:27:05.004403 -- 799975,0.5890082845786806,0.0,0.01159231602192006,0.0,0.0,-0.90937035508458,9.3012061764969,0.19124150941865,120,4569.2073170732,0.0017982895333013,-0.0094516090284261,-0.0014462463226036
02/21/2020-15:27:05.020019 -- 799975,0.5890105532599056,0.0,0.011590047340695015,0.0,0.0,-0.89990972723988,9.2974288222572,0.18936179087423,121,4436.3534050179,-0.00063987889377212,0.0033347814842059,0.0018797185444162
02/21/2020-15:27:05.035641 -- 799975,0.589010987477584,0.0,0.011589613123016637,0.0,0.0,-0.9013910802777301,9.2967058498227,0.18883825168896,122,4392.1784946237,-0.00032951399618765,-0.00043968179891618,0.00052353918527658
02/21/2020-15:27:05.051271 -- 799975,0.5890134939301526,0.0,0.011587106670447989,0.0,0.0,-0.9030499518916799,9.2925326062959,0.18925947378991,123,4615.1555555556,-0.001470211244932,-0.00028168676500954,-0.00042122210095761
02/21/2020-15:27:05.066912 -- 799976,0.5890120131078195,0.0,0.011588587492781141,0.0,0.0,-0.90150738454851,9.2949981754806,0.18665589300857,124,4396.6917562724,0.00090345976144145,0.00035156697280377,0.0026035807813394
02/21/2020-15:27:05.082505 -- 799975,0.5890110364202634,0.0,0.011589564180337176,0.0,0.0,-0.9019504592526899,9.296624360261399,0.18929392474754,125,4410.1770609319,0.00050491403839757,-0.0002463849751297,-0.0026380317389627
02/21/2020-15:27:05.098125 -- 799977,0.5890054835649654,0.0,0.011595117035635195,0.0,0.0,-0.9216845865160801,9.3058698643326,0.17836350434138,126,4466.1622397703,0.0018274835003929,-0.0070305863017923,0.010930420406157
02/21/2020-15:27:05.113746 -- 799976,0.5890084654625974,0.0,0.011592135138003123,0.0,0.0,-0.90374722393653,9.3009050047752,0.18430066042612,127,4443.9727598566,-0.00054954538247074,0.0061795519393065,-0.0059371560847374
02/21/2020-15:27:05.129368 -- 799975,0.5890106866720325,0.0,0.011589913928568167,0.0,0.0,-0.88940349146166,9.297206691066,0.18868179382768,128,4121.205734767,-0.0003248957105748,0.0049269158668411,-0.0043811334015613
02/21/2020-15:27:05.144989 -- 799975,0.5890158675536645,0.0,0.011584733046936097,0.0,0.0,-0.87367240678182,9.2885805231486,0.19209702939364,129,4312.4107526882,-0.0018311100718485,0.0056930895204982,-0.003415235565964
02/21/2020-15:27:05.160610 -- 799976,0.5890108041203834,0.0,0.011589796480217178,0.0,0.0,-0.90345628757154,9.2970111395616,0.18653818315608,130,4101.4867383513,0.0008916659680955,-0.010279437659295,0.0055588462375605
02/21/2020-15:27:05.176232 -- 799977,0.589011642335617,0.0,0.011588958264983663,0.0,0.0,-0.89572023732762,9.2956155111978,0.17977023347641,131,4289.0100430416,1.2232188626148e-05,0.0026202868036788,0.0067679496796682
02/21/2020-15:27:05.191854 -- 799976,0.5890099042670031,0.0,0.01159069633359754,0.0,0.0,-0.90545483184462,9.2985093954399,0.18533952189289,132,4009.0437275986,0.00035951821580952,-0.0033660703467115,-0.0055692884164751
02/21/2020-15:27:05.207474 -- 799975,0.5890142014628317,0.0,0.011586399137768889,0.0,0.0,-0.88463045228649,9.2913545643852,0.18896350717157,133,4044.2551971326,-0.0010517645226415,0.0072639980678953,-0.0036239852786797
02/21/2020-15:27:05.223096 -- 799975,0.589020582960716,0.0,0.011580017639884563,0.0,0.0,-0.86802501466989,9.2807293704078,0.19197942942343,134,4265.4637992832,-0.0024297561791802,0.0061055725534574,-0.0030159222518656
02/21/2020-15:27:05.254338 -- 799976,0.5890121414563436,0.0,0.011588459144256998,0.0,0.0,-0.8869164865524599,9.2947844751879,0.18690284047707,135,3824.9096774194,0.0034154032959887,-0.007066745121495,0.0050765889463612
02/21/2020-15:27:05.269959 -- 799976,0.5890148547563954,0.0,0.011585745844205287,0.0,0.0,-0.91151948028741,9.290266830601801,0.1851492604404,136,3957.7204301075,-0.0029967163010789,-0.0077809867008379,0.0017535800366728
02/21/2020-15:27:05.285582 -- 799976,0.5890173303966285,0.0,0.01158327020397213,0.0,0.0,-0.9019578144918001,9.286144889613599,0.18520099103746,137,3864.1793400287,-0.00076366373448146,0.0033857086838028,-5.1730597064469e-05
02/21/2020-15:27:05.301217 -- 799976,0.5890110198136094,0.0,0.011589580786991231,0.0,0.0,-0.9011547580047001,9.2966520103404,0.18726121959099,138,3771.7288378766,0.0034913784892436,-0.00038543030964925,-0.0020602285535213
02/21/2020-15:27:05.316835 -- 799976,0.5890128732309613,0.0,0.011587727369639339,0.0,0.0,-0.9025834831413301,9.2935660704495,0.1860321094944,139,3617.4544802867,-0.0010991549026887,-0.00027708971466795,0.0012291100965862
02/21/2020-15:27:05.332446 -- 799976,0.5890110180756123,0.0,0.011589582524988349,0.0,0.0,-0.9054063500543401,9.2966549041056,0.1860844318396,140,3543.2035842294,0.00083777697031106,-0.0011151800402816,-5.2322345204337e-05
02/21/2020-15:27:05.348067 -- 799976,0.5890096694944317,0.0,0.01159093110616889,0.0,0.0,-0.9044090355837899,9.2989002917712,0.18631507671049,141,3401.0544802867,0.00079706811207477,0.00018813227310109,-0.00023064487088655
02/21/2020-15:27:05.363687 -- 799976,0.5890100797352795,0.0,0.011590520865321141,0.0,0.0,-0.9042262324949699,9.298217240759701,0.18647354872218,142,3444.2888888889,-0.0002124477543243,0.0001020725340114,-0.00015847201168554
02/21/2020-15:27:05.379309 -- 799976,0.5890103120350931,0.0,0.011590288565507447,0.0,0.0,-0.9039985211022299,9.2978304615699,0.18663648015496,143,3313.7849462366,-0.00011261115683401,9.8499389038511e-05,-0.0001629314327874
02/21/2020-15:27:05.394930 -- 799976,0.589010544357187,0.0,0.011590056243413574,0.0,0.0,-0.903770872731,9.2974436452836,0.18679941158775,144,3346.3333333333,-0.00011261115683401,9.8499389038511e-05,-0.0001629314327874
02/21/2020-15:27:05.410551 -- 799976,0.589010553708469,0.0,0.01159004689213159,0.0,0.0,-0.90060898485285,9.2974280753991,0.18679493753178,145,3177.4874551971,0.0001906346135225,0.0010365918179037,4.474055971888e-06
02/21/2020-15:27:05.426173 -- 799976,0.5890136893078427,0.0,0.011586911292757898,0.0,0.0,-0.89964068811015,9.2922073024419,0.18604758716613,146,3226.0867383513,-0.0016502832174869,0.00063971849714414,0.00074735036565165
02/21/2020-15:27:05.441794 -- 799976,0.5890097809209589,0.0,0.011590819679641682,0.0,0.0,-0.89962023800727,9.2987147666034,0.18625718011403,147,3134.3978494624,0.0021329412142225,-0.00039476633784146,-0.00020959294789997
02/21/2020-15:27:05.457415 -- 799976,0.5890122858021434,0.0,0.011588314798457178,0.0,0.0,-0.9059732030712899,9.2945441394312,0.18475508720665,148,3062.7132616487,-0.0017569462054662,-0.001824906894892,0.0015020929073767
02/21/2020-15:27:05.473037 -- 799976,0.5890142215511771,0.0,0.011586379049423483,0.0,0.0,-0.9116732096414399,9.2913211172901,0.18341535306853,149,3216.6401433692,-0.0014039791145604,-0.0016712449267592,0.001339734138126
02/21/2020-15:27:05.488658 -- 799976,0.5890114713943229,0.0,0.011589129206277717,0.0,0.0,-0.91717246773468,9.295900128452399,0.18410934295571,150,3080.6028673835,0.001165678828874,-0.0020811300493276,-0.00069398988718982
02/21/2020-15:27:05.504283 -- 799976,0.5890135749963966,0.0,0.011587025604204024,0.0,0.0,-0.9135414910603499,9.2923976309997,0.18446269606886,151,3022.9347670251,-0.00092594455170448,0.0014037695462016,-0.00035335311314622
02/21/2020-15:27:05.519901 -- 799976,0.589015262201302,0.0,0.011585338399298619,0.0,0.0,-0.9069638324436899,9.2895884348322,0.18494655551602,152,3098.9189964158,-0.00051779518119543,0.0023272341779995,-0.00048385944715619
02/21/2020-15:27:05.535523 -- 799976,0.5890162256052638,0.0,0.011584374995336818,0.0,0.0,-0.90665133351189,9.2879843672358,0.1853992650365,153,3016.7132616487,-0.00050636965049363,0.00020083062853199,-0.00045270952048743
02/21/2020-15:27:05.551153 -- 799976,0.5890153248697699,0.0,0.01158527573083069,0.0,0.0,-0.90711293354568,9.2894840918331,0.18526389263458,154,2874.2215053763,0.00046299398459843,-0.00024335104835817,0.0001353724019278
02/21/2020-15:27:05.582386 -- 799976,0.5890154798298254,0.0,0.011585120770775195,0.0,0.0,-0.9126153841513199,9.289226083340699,0.18522702228807,155,2968.9849462366,-0.00042235949956649,-0.0017869291825607,3.6870346502452e-05
02/21/2020-15:27:05.598017 -- 799976,0.5890128301819018,0.0,0.011587770418698799,0.0,0.0,-0.90785001958488,9.2936377471335,0.18549495384471,156,3086.1512544803,0.0017381180586683,0.001290219087171,-0.00026793155663261
02/21/2020-15:27:05.613629 -- 799976,0.5890143470061318,0.0,0.011586253594468889,0.0,0.0,-0.90492852730455,9.291112234790699,0.18569794550485,157,2743.8665710187,-0.00064767634576661,0.0011124531423522,-0.00020299166014399
02/21/2020-15:27:05.629251 -- 799976,0.5890119728023413,0.0,0.011588627798259338,0.0,0.0,-0.9058887454065,9.295065284101799,0.18325561349861,158,3581.5032258065,0.0012366137754219,-0.00055634748379982,0.0024423320062419
02/21/2020-15:27:05.644872 -- 799981,0.5889805351681092,0.0,0.011620065432491413,0.0,0.0,-1.0125280248419999,9.3474089450982,0.14653316507465,159,3844.7928519329,0.011376937586119,-0.037930300440161,0.036722448423959
02/21/2020-15:27:05.660499 -- 799985,0.5889656649925608,0.0,0.011634935608039878,0.0,0.0,-1.13795366631792,9.372167787386399,0.11251303141879,160,3667.492005814,0.002783899105089,-0.042526225783754,0.034020133655857
02/21/2020-15:27:05.676115 -- 799992,0.5889536575459227,0.0,0.011646943054677898,0.0,0.0,-1.21838746770804,9.3921601860387,0.059522737389687,161,3784.9347028613,0.0043365640047948,-0.027287659933896,0.052990294029106
02/21/2020-15:27:05.691735 -- 800001,0.5889491783453573,0.0,0.011651422255243304,0.0,0.0,-1.30855697632197,9.3996180549801,6.2698824734913,162,3606.2893175074,0.0017911210445642,-0.030112160306145,0.072825571077957
02/21/2020-15:27:05.707356 -- 800008,0.5889343144617146,0.0,0.011666286138886007,0.0,0.0,-1.4577525886003802,9.4243664212452,6.213053969951,163,3761.9723053892,0.010317646670105,-0.049350784505013,0.056828503540352
02/21/2020-15:27:05.722977 -- 800017,0.5889224348229277,0.0,0.011678165777672854,0.0,0.0,-1.5870295404160202,9.4441460198253,6.142540674938,164,3820.2102056359,0.011091783982291,-0.042167864589481,0.070513295012983
02/21/2020-15:27:05.738599 -- 800026,0.5889222470501011,0.0,0.01167835355049952,0.0,0.0,-1.66437937904157,9.4444586615817,6.0762120781353,165,3793.9046898638,0.0045622627338463,-0.025381147837216,0.066328596802704
02/21/2020-15:27:05.754221 -- 800030,0.5889374830102252,0.0,0.011663117590375374,0.0,0.0,-1.70038679167368,9.419090787975,6.0461724168734,166,4013.062079282,-0.0056060165147267,-0.013570199224002,0.030039661261831
02/21/2020-15:27:05.769843 -- 800032,0.5889395060637397,0.0,0.011661094536860962,0.0,0.0,-1.7201173274186399,9.4157224038735,6.0249327040806,167,3960.763868066,0.00052351291158811,-0.0066515460262452,0.021239712792801
02/21/2020-15:27:05.785463 -- 800032,0.5889455382388418,0.0,0.011655062361758797,0.0,0.0,-1.7217046882694098,9.4056788323284,6.0294117757304,168,4118.0446043165,-0.0031047569737579,-0.001359638968194,-0.0044790716497155
02/21/2020-15:27:05.801093 -- 800028,0.5889289037921418,0.0,0.011671696808458799,0.0,0.0,-1.69749357504192,9.4333751860839,6.0622379520119,169,4026.4783236994,0.0070759157123526,0.010015336550964,-0.032826176281494
02/21/2020-15:27:05.816705 -- 800022,0.588937146789733,0.0,0.011663453810867627,0.0,0.0,-1.64402696839386,9.4196505950946,6.1027895320057,170,3607.2755326965,-0.0080360301576056,0.016553730314422,-0.040551579993834
02/21/2020-15:27:05.832327 -- 800020,0.5890305186509456,0.0,0.011570081949655016,0.0,0.0,-1.5033262653637198,9.2641864461756,6.1229209808153,171,3352.4450035945,-0.059022351321155,0.037438007886357,-0.020131448809604
02/21/2020-15:27:05.863569 -- 800015,0.5892029657355281,0.0,0.011397634865072493,0.0,0.0,-1.20716527493025,8.977062050345701,6.1586090412581,172,3247.2146974063,-0.10875682884697,0.08414026132379,-0.035688060442791
